Institution ID,Name,City,State,ZIP,CSA,County,Longitude,Latitude
100654,Alabama A & M University,Normal,AL,35762,290,Madison County,-86.568502,34.783367999999996
100663,University of Alabama at Birmingham,Birmingham,AL,35294-0110,142,Jefferson County,-86.80917,33.50223
100690,Amridge University,Montgomery,AL,36117-3553,-2,Montgomery County,-86.17401,32.362609
100706,University of Alabama in Huntsville,Huntsville,AL,35899,290,Madison County,-86.63842,34.722818
100724,Alabama State University,Montgomery,AL,36104-0271,-2,Montgomery County,-86.295677,32.364317
100733,University of Alabama System Office,Tuscaloosa,AL,35401,-2,Tuscaloosa County,-87.560858,33.212525
100751,The University of Alabama,Tuscaloosa,AL,35487-0166,-2,Tuscaloosa County,-87.545766,33.2144
100760,Central Alabama Community College,Alexander City,AL,35010,-2,Tallapoosa County,-85.94653000000001,32.924428999999996
100812,Athens State University,Athens,AL,35611,290,Limestone County,-86.96514,34.805625
100830,Auburn University at Montgomery,Montgomery,AL,36117-3596,-2,Montgomery County,-86.177351,32.369939
100858,Auburn University,Auburn University,AL,36849,194,Lee County,-85.492409,32.600201
100937,Birmingham Southern College,Birmingham,AL,35254,142,Jefferson County,-86.853636,33.515453
101028,Chattahoochee Valley Community College,Phenix City,AL,36869,194,Russell County,-85.031485,32.42391
101073,Concordia College Alabama,Selma,AL,36701,-2,Dallas County,-87.023531,32.42443
101116,South University-Montgomery,Montgomery,AL,36116,-2,Montgomery County,-86.216488,32.342684000000006
101143,Enterprise State Community College,Enterprise,AL,36330-1300,222,Coffee County,-85.836956,31.297496000000002
101161,James H Faulkner State Community College,Bay Minette,AL,36507-2698,380,Baldwin County,-87.779758,30.852045
101189,Faulkner University,Montgomery,AL,36109-3378,-2,Montgomery County,-86.21641,32.384181
101240,Gadsden State Community College,Gadsden,AL,35903,-2,Etowah County,-85.991299,33.991865999999995
101277,New Beginning College of Cosmetology,Albertville,AL,35951,290,Marshall County,-86.196979,34.278124
101286,George C Wallace State Community College-Dothan,Dothan,AL,36303-9234,222,Dale County,-85.46355,31.316086
101295,George C Wallace State Community College-Hanceville,Hanceville,AL,35077-2000,142,Cullman County,-86.781745,34.073409999999996
101301,George C Wallace State Community College-Selma,Selma,AL,36703-2808,-2,Dallas County,-87.01324,32.445611
101365,Herzing University-Birmingham,Birmingham,AL,35209,142,Jefferson County,-86.832299,33.468105
101435,Huntingdon College,Montgomery,AL,36106-2148,-2,Montgomery County,-86.285313,32.350939000000004
101453,Heritage Christian University,Florence,AL,35630-9977,-2,Lauderdale County,-87.662062,34.859089000000004
101462,J F Drake State Community and Technical College,Huntsville,AL,35811,290,Madison County,-86.573817,34.772116
101471,J F Ingram State Technical College,Deatsville,AL,36022,-2,Elmore County,-86.39236899999999,32.582312
101480,Jacksonville State University,Jacksonville,AL,36265,-2,Calhoun County,-85.766644,33.822128
101499,Jefferson Davis Community College,Brewton,AL,36426,-2,Escambia County,-87.085829,31.101995000000002
101505,Jefferson State Community College,Birmingham,AL,35215-3098,142,Jefferson County,-86.707387,33.652439
101514,John C Calhoun State Community College,Tanner,AL,35671,290,Limestone County,-86.94913100000001,34.65428
101541,Judson College,Marion,AL,36756,-2,Perry County,-87.31612700000001,32.630526
101569,Lawson State Community College-Birmingham Campus,Birmingham,AL,35221-1717,142,Jefferson County,-86.89023399999999,33.451673
101587,University of West Alabama,Livingston,AL,35470,-2,Sumter County,-88.186077,32.59244
101602,Lurleen B Wallace Community College,Andalusia,AL,36420-1418,-2,Covington County,-86.452262,31.322946999999996
101648,Marion Military Institute,Marion,AL,36756-3207,-2,Perry County,-87.317998,32.622359
101675,Miles College,Fairfield,AL,35064-2621,142,Jefferson County,-86.90860500000001,33.481306
101693,University of Mobile,Mobile,AL,36613-2842,380,Mobile County,-88.128934,30.793246999999997
101709,University of Montevallo,Montevallo,AL,35115-6000,142,Shelby County,-86.865099,33.10625
101736,Northwest-Shoals Community College,Muscle Shoals,AL,35661,-2,Colbert County,-87.67733,34.739567
101879,University of North Alabama,Florence,AL,35632-0001,-2,Lauderdale County,-87.680999,34.80658
101897,Northeast Alabama Community College,Rainsville,AL,35986,174,Jackson County,-85.911664,34.545471
101912,Oakwood University,Huntsville,AL,35896,290,Madison County,-86.66162800000001,34.756628000000006
101949,Alabama Southern Community College,Monroeville,AL,36460,-2,Monroe County,-87.326352,31.488925
101958,Prince Institute-Southeast,Montgomery,AL,36117,-2,Montgomery County,-86.162213,32.383091
101994,Reid State Technical College,Evergreen,AL,36401,-2,Conecuh County,-86.964486,31.46071
102030,Bishop State Community College,Mobile,AL,36603-5898,380,Mobile County,-88.05698199999999,30.693972
102049,Samford University,Birmingham,AL,35229-2240,142,Jefferson County,-86.790932,33.464578
102058,Selma University,Selma,AL,36701,-2,Dallas County,-87.033826,32.420358
102067,Shelton State Community College,Tuscaloosa,AL,35405-8522,-2,Tuscaloosa County,-87.56148,33.120531
102076,Snead State Community College,Boaz,AL,35957-0734,290,Marshall County,-86.169483,34.200648
102094,University of South Alabama,Mobile,AL,36688-0002,380,Mobile County,-88.18189,30.695081
102234,Spring Hill College,Mobile,AL,36608-1791,380,Mobile County,-88.138199,30.694751
102261,Southeastern Bible College,Birmingham,AL,35224-2083,142,Shelby County,-86.749045,33.378935
102270,Stillman College,Tuscaloosa,AL,35403,-2,Tuscaloosa County,-87.58524200000001,33.199228000000005
102298,Talladega College,Talladega,AL,35160,142,Talladega County,-86.113675,33.434258
102313,H Councill Trenholm State Technical College,Montgomery,AL,36108-3199,-2,Montgomery County,-86.343057,32.350109
102368,Troy University,Troy,AL,36082-0001,-2,Pike County,-85.950191,31.800128000000004
102377,Tuskegee University,Tuskegee,AL,36088-1920,-2,Macon County,-85.71031500000001,32.431021
102395,United States Sports Academy,Daphne,AL,36526-7055,380,Baldwin County,-87.91163,30.639328999999996
102429,Bevill State Community College,Jasper,AL,35501,142,Walker County,-87.265034,33.835784999999994
102553,University of Alaska Anchorage,Anchorage,AK,99508,-2,Anchorage Municipality,-149.82613500000002,61.189554
102580,Alaska Bible College,Palmer,AK,99645,-2,Matanuska-Susitna Borough,-149.11134099999998,61.59843000000001
102614,University of Alaska Fairbanks,Fairbanks,AK,99775-7500,-2,Fairbanks North Star Borough,-147.824751,64.85705300000001
102632,University of Alaska Southeast,Juneau,AK,99801-8697,-2,Juneau City and Borough,-134.636346,58.384269999999994
102669,Alaska Pacific University,Anchorage,AK,99508,-2,Anchorage Municipality,-149.804242,61.191235
102711,AVTEC-Alaska's Institute of Technology,Seward,AK,99664-0889,-2,Kenai Peninsula Borough,-149.444573,60.110727000000004
102845,Charter College-Anchorage,Anchorage,AK,99508,-2,Anchorage Municipality,-149.840178,61.195786
103361,Prince William Sound Community College,Valdez,AK,99686-0097,-2,Valdez-Cordova Census Area,-146.17799,61.122364000000005
103501,Alaska Career College,Anchorage,AK,99507-1033,-2,Anchorage Municipality,-149.856954,61.181443
103529,University of Alaska System of Higher Education,Fairbanks,AK,99775-5000,-2,Fairbanks North Star Borough,-147.82863,64.858626
103644,Everest College-Phoenix,Phoenix,AZ,85021-1641,-2,Maricopa County,-112.113845,33.580985
103723,Collins College,Phoenix,AZ,85040,-2,Maricopa County,-111.98646000000001,33.40334
103732,Empire Beauty School-Paradise Valley,Phoenix,AZ,85032,-2,Maricopa County,-111.97635700000001,33.602593
103741,Empire Beauty School-Tucson,Tucson,AZ,85716,536,Pima County,-110.92718700000002,32.235657
103778,Thunderbird School of Global Management,Glendale,AZ,85306-6000,-2,Maricopa County,-112.18086100000001,33.620886999999996
103787,American Indian College of the Assemblies of God Inc,Phoenix,AZ,85021,-2,Maricopa County,-112.092247,33.577738000000004
103811,American Institute of Technology,Phoenix,AZ,85043-4729,-2,Maricopa County,-112.175304,33.442262
103893,Carrington College-Phoenix,Phoenix,AZ,85051-4063,-2,Maricopa County,-112.115546,33.560821000000004
103909,Carrington College-Mesa,Mesa,AZ,85210,-2,Maricopa County,-111.855281,33.392070000000004
103927,Carrington College-Tucson,Tucson,AZ,85705-5885,536,Pima County,-110.977571,32.27094
103945,College America-Flagstaff,Flagstaff,AZ,86004,-2,Coconino County,-111.60479299999999,35.211152
103954,Arizona Academy of Beauty-East,Tucson,AZ,85712,536,Pima County,-110.87230500000001,32.237253
103963,Arizona Automotive Institute,Glendale,AZ,85301-3579,-2,Maricopa County,-112.157344,33.537248999999996
104090,Brookline College-Phoenix,Phoenix,AZ,85021,-2,Maricopa County,-112.15007,33.525384
104151,Arizona State University-Tempe,Tempe,AZ,85287,-2,Maricopa County,-111.94001100000001,33.421921999999995
104160,Arizona Western College,Yuma,AZ,85365-8834,-2,Yuma County,-114.49596799999999,32.689306
104179,University of Arizona,Tucson,AZ,85721-0066,536,Pima County,-110.950769,32.232071000000005
104188,Southwest University of Visual Arts-Tucson,Tucson,AZ,85716,536,Pima County,-110.92732099999999,32.252384
104294,Brillare Hairdressing Academy,Scottsdale,AZ,85254,-2,Maricopa County,-111.925481,33.623979
104346,Central Arizona College,Coolidge,AZ,85128-9030,-2,Pinal County,-111.652501,32.957091999999996
104364,Brown Mackie College-Tucson,Tucson,AZ,85712,536,Pima County,-110.895086,32.236736
104391,Charles of Italy Beauty College,Lake Havasu City,AZ,86403,332,Mohave County,-114.328134,34.475275
104425,Cochise College,Douglas,AZ,85607-6190,-2,Cochise County,-109.690422,31.365757000000002
104434,Empire Beauty School-Flagstaff,Flagstaff,AZ,86004,-2,Coconino County,-111.62593600000001,35.197151
104443,Empire Beauty School-Chandler,Chandler,AZ,85224,-2,Maricopa County,-111.860423,33.347586
104504,Cortiva Institute-Tucson,Tucson,AZ,85710,536,Pima County,-110.85678500000002,32.21901
104531,DeVry University-Arizona,Phoenix,AZ,85021-2995,-2,Maricopa County,-112.104445,33.566086999999996
104568,Avalon School of Cosmetology-Mesa,Mesa,AZ,85210,-2,Maricopa County,-111.858305,33.376583000000004
104577,Eastern Arizona College,Thatcher,AZ,85552-0769,-2,Graham County,-109.761664,32.840719
104586,Embry-Riddle Aeronautical University-Prescott,Prescott,AZ,86301-3720,-2,Yavapai County,-112.452285,34.615678
104665,Frank Lloyd Wright School of Architecture,Scottsdale,AZ,85261-4430,-2,Maricopa County,-111.84647700000001,33.60715
104708,Glendale Community College,Glendale,AZ,85302,-2,Maricopa County,-112.18833400000001,33.567483
104717,Grand Canyon University,Phoenix,AZ,85017,-2,Maricopa County,-112.12991699999999,33.512172
104805,Anthem College-Phoenix,Phoenix,AZ,85014,-2,Maricopa County,-112.05018600000001,33.494316
104911,International Academy of Hair Design,Mesa,AZ,85202-4887,-2,Maricopa County,-111.862674,33.392961
105118,Kaplan College-Phoenix,Phoenix,AZ,85029,-2,Maricopa County,-112.118921,33.608202
105136,Maricopa Community College System Office,Tempe,AZ,85281-6942,-2,Maricopa County,-111.97578600000001,33.412915000000005
105145,GateWay Community College,Phoenix,AZ,85034,-2,Maricopa County,-111.996527,33.4495
105154,Mesa Community College,Mesa,AZ,85202,-2,Maricopa County,-111.871494,33.391256
105163,ITT Technical Institute-Tucson,Tucson,AZ,85704-5829,536,Pima County,-110.997501,32.297261
105172,ITT Technical Institute-Tempe,Tempe,AZ,85282,-2,Maricopa County,-111.969169,33.380355
105206,Mohave Community College,Kingman,AZ,86409-1238,332,Mohave County,-114.030244,35.270737
105215,Universal Technical Institute of Arizona Inc-Motorcycle Mechanics Institute Division,Phoenix,AZ,85027,-2,Maricopa County,-112.12133600000001,33.684428000000004
105297,Dine College,Tsaile,AZ,86556,-2,Apache County,-109.21683999999999,36.293328
105330,Northern Arizona University,Flagstaff,AZ,86011-4132,-2,Coconino County,-111.657653,35.180095
105349,Northland Pioneer College,Holbrook,AZ,86025-0610,-2,Navajo County,-110.1316,34.922221
105367,Ottawa University-Phoenix,Phoenix,AZ,85021,-2,Maricopa County,-112.113447,33.577907
105428,Phoenix College,Phoenix,AZ,85013,-2,Maricopa County,-112.088293,33.481361
105482,Cortiva Institute-Scottsdale,Scottsdale,AZ,85257,-2,Maricopa County,-111.908433,33.466553999999995
105516,University of Phoenix-Phoenix Campus,Tempe,AZ,85282-2371,-2,Maricopa County,-111.96627099999999,33.40319
105525,Pima Community College,Tucson,AZ,85709-1275,536,Pima County,-110.887019,32.221771999999994
105534,Pima Medical Institute-Tucson,Tucson,AZ,85716,536,Pima County,-110.921306,32.250448
105543,Pima Medical Institute-Albuquerque,Albuquerque,NM,87110,106,Bernalillo County,-106.594451,35.10485
105589,Prescott College,Prescott,AZ,86301,-2,Yavapai County,-112.47650900000001,34.5445
105659,Refrigeration School Inc,Phoenix,AZ,85034-1816,-2,Maricopa County,-111.98935700000001,33.448692
105668,Rio Salado College,Tempe,AZ,85281,-2,Maricopa County,-111.975201,33.413138000000004
105677,Roberto-Venn School of Luthiery,Phoenix,AZ,85007,-2,Maricopa County,-112.086161,33.45489
105701,Hair Academy of Safford,Safford,AZ,85546,-2,Graham County,-109.727696,32.835302
105747,Scottsdale Community College,Scottsdale,AZ,85256,-2,Maricopa County,-111.887298,33.509489
105792,South Mountain Community College,Phoenix,AZ,85042,-2,Maricopa County,-112.057515,33.381001
105899,Arizona Christian University,Phoenix,AZ,85032-7097,-2,Maricopa County,-112.026211,33.595117
105987,Tucson College,Tucson,AZ,85711,536,Pima County,-110.88318100000001,32.22205
106041,Universal Technical Institute of Arizona Inc,Avondale,AZ,85323,-2,Maricopa County,-112.289693,33.453533
106102,Western International University,Tempe,AZ,85282,-2,Maricopa County,-111.96412,33.403634999999994
106111,Empire Beauty School-NW Phoenix,Glendale,AZ,85051,-2,Maricopa County,-112.118168,33.538092999999996
106148,Yavapai College,Prescott,AZ,86301,-2,Yavapai County,-112.45415600000001,34.547512
106245,University of Arkansas at Little Rock,Little Rock,AR,72204,340,Pulaski County,-92.341835,34.726644
106263,University of Arkansas for Medical Sciences,Little Rock,AR,72205-7199,340,Pulaski County,-92.320945,34.749718
106281,ABC Beauty College Inc,Arkadelphia,AR,71923,-2,Clark County,-93.080831,34.12018
106306,Arkansas Baptist College,Little Rock,AR,72202-6068,340,Pulaski County,-92.290555,34.734751
106315,Arkansas Beauty School,Little Rock,AR,72209,340,Pulaski County,-92.334814,34.669071
106324,Arkansas Beauty College,Russellville,AR,72801,-2,Pope County,-93.13521999999999,35.278622
106342,Lyon College,Batesville,AR,72501,-2,Independence County,-91.62811500000001,35.778934
106351,Arkansas College of Barbering and Hair Design,North Little Rock,AR,72114,340,Pulaski County,-92.266336,34.753621
106360,Arthur's Beauty College Inc-Fort Smith,Fort Smith,AR,72901-3342,-2,Sebastian County,-94.410967,35.379954999999995
106397,University of Arkansas,Fayetteville,AR,72701,-2,Washington County,-94.178214,36.06153
106412,University of Arkansas at Pine Bluff,Pine Bluff,AR,71601,340,Jefferson County,-92.021263,34.242191999999996
106449,Arkansas State University-Beebe,Beebe,AR,72012-1000,340,White County,-91.896165,35.074512
106458,Arkansas State University-Main Campus,Jonesboro,AR,72401,308,Craighead County,-90.68047800000001,35.842779
106467,Arkansas Tech University,Russellville,AR,72801-2222,-2,Pope County,-93.13233000000001,35.295227000000004
106485,University of Arkansas at Monticello,Monticello,AR,71656,-2,Drew County,-91.81297099999999,33.589788
106494,Arthur's Beauty College Inc-Jacksonville,Jacksonville,AR,72076,340,Pulaski County,-92.102284,34.8918
106546,Baptist Health Schools-Little Rock,Little Rock,AR,72210-2820,340,Pulaski County,-92.40692,34.713115
106625,Black River Technical College,Pocahontas,AR,72455,-2,Randolph County,-90.951033,36.239793
106704,University of Central Arkansas,Conway,AR,72035-0001,340,Faulkner County,-92.45931,35.078196000000005
106713,Central Baptist College,Conway,AR,72034,340,Faulkner County,-92.444102,35.084573999999996
106795,Cossatot Community College of the University of Arkansas,De Queen,AR,71832,-2,Sevier County,-94.3673,34.043389000000005
106810,Crowley's Ridge College,Paragould,AR,72450,308,Greene County,-90.58482,36.066239
106829,Crowley's Ridge Technical Institute,Forrest City,AR,72335-0925,368,St. Francis County,-90.76780699999999,35.041908
106883,East Arkansas Community College,Forrest City,AR,72335-2204,368,St. Francis County,-90.767445,35.039673
106892,Eastern College of Health Vocations-Little Rock,Little Rock,AR,72205,340,Pulaski County,-92.341891,34.75128
106908,Imagine-Paul Mitchell Partner School,North Little Rock,AR,72117,340,Pulaski County,-92.221304,34.791306
106980,National Park Community College,Hot Springs,AR,71913,284,Garland County,-93.117111,34.512731
106999,University of Arkansas Community College-Batesville,Batesville,AR,72503-3350,-2,Independence County,-91.616123,35.79293
107044,Harding University,Searcy,AR,72143,340,White County,-91.729008,35.249604999999995
107071,Henderson State University,Arkadelphia,AR,71999-0001,-2,Clark County,-93.060313,34.127792
107080,Hendrix College,Conway,AR,72032-3080,340,Faulkner County,-92.442021,35.09972
107099,Hot Springs Beauty College,Hot Springs,AR,71901,284,Garland County,-93.038381,34.496287
107123,Jefferson Regional Medical Center School of Nursing,Pine Bluff,AR,71603,340,Jefferson County,-92.018045,34.187831
107141,John Brown University,Siloam Springs,AR,72761,-2,Benton County,-94.559088,36.191077
107211,Lees School of Cosmetology,North  Little Rock,AR,72114-3800,340,Pulaski County,-92.296729,34.781993
107220,Career Academy of Hair Design,Springdale,AR,72764-7128,-2,Washington County,-94.131834,36.16757
107275,Marsha Kay Beauty College,Mountain Home,AR,72653-3164,-2,Baxter County,-92.38601899999999,36.344658
107293,Academy of Salon and Spa,Fort Smith,AR,72901,-2,Sebastian County,-94.416327,35.380891
107318,Mid-South Community College,West Memphis,AR,72301-3829,368,Crittenden County,-90.22285,35.145736
107327,Arkansas Northeastern College,Blytheville,AR,72316-1109,-2,Mississippi County,-89.92249100000001,35.897362
107363,Margaret's Hair Academy Inc,Monticello,AR,71655,-2,Drew County,-91.7887,33.629169
107442,New Tyler Barber College Inc,North Little Rock,AR,72114-4973,340,Pulaski County,-92.254108,34.759076
107460,North Arkansas College,Harrison,AR,72601-5508,-2,Boone County,-93.087317,36.220528
107488,Northwest Technical Institute,Springdale,AR,72764,-2,Washington County,-94.116433,36.178616999999996
107512,Ouachita Baptist University,Arkadelphia,AR,71998-0001,-2,Clark County,-93.052442,34.125045
107521,College of the Ouachitas,Malvern,AR,72104-0816,284,Hot Spring County,-92.821416,34.378745
107549,Ozarka College,Melbourne,AR,72556-0010,-2,Izard County,-91.896355,36.053031
107558,University of the Ozarks,Clarksville,AR,72830,-2,Johnson County,-93.467924,35.477785
107585,University of Arkansas Community College-Morrilton,Morrilton,AR,72110,-2,Conway County,-92.728507,35.172136
107600,Philander Smith College,Little Rock,AR,72202-3799,340,Pulaski County,-92.28242,34.73666
107619,Phillips Community College of the University of Arkansas,Helena,AR,72342-0785,-2,Phillips County,-90.617745,34.544976
107637,Southeast Arkansas College,Pine Bluff,AR,71603,340,Jefferson County,-92.024731,34.209796999999995
107655,Professional Cosmetology Education Center,El Dorado,AR,71730-4009,-2,Union County,-92.663131,33.215123999999996
107664,Pulaski Technical College,North Little Rock,AR,72118-3347,340,Pulaski County,-92.299729,34.78243
107725,University of Arkansas Community College-Hope,Hope,AR,71801,-2,Hempstead County,-93.584528,33.647909999999996
107743,Rich Mountain Community College,Mena,AR,71953,-2,Polk County,-94.2197,34.590793
107789,Paul Mitchell the School-Arkansas,Fayetteville,AR,72703,-2,Washington County,-94.15444699999999,36.127461
107831,Searcy Beauty College Inc,Searcy,AR,72143,340,White County,-91.73454,35.237722999999995
107840,Shorter College,N Little Rock,AR,72114,340,Pulaski County,-92.26133100000001,34.75933
107877,Williams Baptist College,Walnut Ridge,AR,72476,-2,Lawrence County,-90.939876,36.126825
107974,South Arkansas Community College,El Dorado,AR,71731-7010,-2,Union County,-92.666087,33.209446
107983,Southern Arkansas University Main Campus,Magnolia,AR,71753,-2,Columbia County,-93.235087,33.291195
107992,Southern Arkansas University Tech,Camden,AR,71701-1906,-2,Calhoun County,-92.719498,33.63037
108056,University of Arkansas System Office,Little Rock,AR,72207-3608,340,Pulaski County,-92.343714,34.775989
108065,Velvatex College of Beauty Culture,Little Rock,AR,72202-5452,340,Pulaski County,-92.28975799999999,34.735724
108092,University of Arkansas-Fort Smith,Fort Smith,AR,72913-3649,-2,Sebastian County,-94.374073,35.385345
108232,Academy of Art University,San Francisco,CA,94105,488,San Francisco County,-122.40068600000001,37.787748
108250,ITT Technical Institute-Rancho Cordova,Rancho Cordova,CA,95670-6034,472,Sacramento County,-121.28150600000001,38.59172
108269,Academy of Chinese Culture and Health Sciences,Oakland,CA,94612,488,Alameda County,-122.272733,37.806662
108348,The Academy of Radio and TV Broadcasting,Huntington Beach,CA,92647,348,Orange County,-117.98766599999999,33.728895
108649,Avalon School of Cosmetology-Alameda,Alameda,CA,94501,488,Alameda County,-122.24356599999999,37.764203
108667,College of Alameda,Alameda,CA,94501,488,Alameda County,-122.279261,37.78239
108807,Allan Hancock College,Santa Maria,CA,93454-6399,-2,Santa Barbara County,-120.42148600000002,34.942979
108852,American Academy of Dramatic Arts-Los Angeles,Los Angeles,CA,90028,348,Los Angeles County,-118.34409699999999,34.095315
108861,American Baptist Seminary of the West,Berkeley,CA,94704-3029,488,Alameda County,-122.256149,37.865252000000005
108870,American Film Institute Conservatory,Los Angeles,CA,90027-1625,348,Los Angeles County,-118.30998899999999,34.10846
108977,American Beauty College,West Covina,CA,91790,348,Los Angeles County,-118.12503600000001,33.884391
109040,American Career College-Los Angeles,Los Angeles,CA,90004,348,Los Angeles County,-118.292282,34.079236
109086,American Conservatory Theater,San Francisco,CA,94108-5834,488,San Francisco County,-122.404945,37.787326
109208,American River College,Sacramento,CA,95841-4286,472,Sacramento County,-121.34601200000002,38.649734
109332,Everest College-Hayward,Hayward,CA,94541,488,Alameda County,-122.084826,37.675438
109350,Antelope Valley College,Lancaster,CA,93536-5426,348,Los Angeles County,-118.18616599999999,34.676207
109651,Art Center College of Design,Pasadena,CA,91103,348,Los Angeles County,-118.186901,34.170844
109721,Associated Technical College-Los Angeles,Los Angeles,CA,90017-1604,348,Los Angeles County,-118.27243,34.055987
109730,Associated Technical College-San Diego,San Diego,CA,92101,-2,San Diego County,-117.158203,32.715658000000005
109785,Azusa Pacific University,Azusa,CA,91702-7000,348,Los Angeles County,-117.88795,34.130865
109819,Bakersfield College,Bakersfield,CA,93305-1299,-2,Kern County,-118.973491,35.4108
109907,Barstow Community College,Barstow,CA,92311,348,San Bernardino County,-117.02523000000001,34.871451
109934,Bellus Academy-National City,National City,CA,91950,-2,San Diego County,-117.090235,32.676762
110060,Bethesda University of California,Anaheim,CA,92801,348,Orange County,-117.941323,33.842295
110097,Biola University,La Mirada,CA,90639-0001,348,Los Angeles County,-118.017342,33.904823
110185,Brooks Institute,Santa Barbara,CA,93101,-2,Santa Barbara County,-119.69599099999999,34.418552000000005
110194,Brownson Technical School,Anaheim,CA,92805,348,Orange County,-117.90640900000001,33.819
110219,Bryan University,Los Angeles,CA,90010,348,Los Angeles County,-118.30288200000001,34.061406
110246,Butte College,Oroville,CA,95965-8399,-2,Butte County,-121.644691,39.649116
110307,Phillips Graduate Institute,Chatsworth,CA,91311,348,Los Angeles County,-118.567621,34.242020000000004
110316,California Institute of Integral Studies,San Francisco,CA,94103,488,San Francisco County,-122.416537,37.774768
110334,Cabrillo College,Aptos,CA,95003,488,Santa Cruz County,-121.927926,36.9891
110361,California Baptist University,Riverside,CA,92504-3297,348,Riverside County,-117.42586999999999,33.928569
110370,California College of the Arts,San Francisco,CA,94107-2247,488,San Francisco County,-122.400263,37.767266
110398,University of California-Hastings College of Law,San Francisco,CA,94102-4978,488,San Francisco County,-122.41539499999999,37.780718
110404,California Institute of Technology,Pasadena,CA,91125,348,Los Angeles County,-118.12574,34.139275
110413,California Lutheran University,Thousand Oaks,CA,91360-2787,348,Ventura County,-118.87946699999999,34.225551
110422,California Polytechnic State University-San Luis Obispo,San Luis Obispo,CA,93407,-2,San Luis Obispo County,-120.65856000000001,35.29889
110468,Alliant International University,San Diego,CA,92131-1799,-2,San Diego County,-117.094398,32.897056
110486,California State University-Bakersfield,Bakersfield,CA,93311-1099,-2,Kern County,-119.10471100000001,35.350004999999996
110495,California State University-Stanislaus,Turlock,CA,95382-0299,382,Stanislaus County,-120.852511,37.52577
110501,California State University-Chancellors Office,Long Beach,CA,90802-4210,348,Los Angeles County,-118.201255,33.764338
110510,California State University-San Bernardino,San Bernardino,CA,92407-2397,348,San Bernardino County,-117.32250800000001,34.182987
110529,California State Polytechnic University-Pomona,Pomona,CA,91768,348,Los Angeles County,-117.819019,34.054272999999995
110538,California State University-Chico,Chico,CA,95929-0150,-2,Butte County,-121.846333,39.728003
110547,California State University-Dominguez Hills,Carson,CA,90747-0005,348,Los Angeles County,-118.259316,33.86524
110556,California State University-Fresno,Fresno,CA,93740,260,Fresno County,-119.748258,36.814477000000004
110565,California State University-Fullerton,Fullerton,CA,92831-3599,348,Orange County,-117.885349,33.883627000000004
110574,California State University-East Bay,Hayward,CA,94542,488,Alameda County,-122.058073,37.657070000000004
110583,California State University-Long Beach,Long Beach,CA,90840-0115,348,Los Angeles County,-118.1123,33.782752
110592,California State University-Los Angeles,Los Angeles,CA,90032,348,Los Angeles County,-118.16896499999999,34.066927
110608,California State University-Northridge,Northridge,CA,91330,348,Los Angeles County,-118.526817,34.236709999999995
110617,California State University-Sacramento,Sacramento,CA,95819-2694,472,Sacramento County,-121.42193999999999,38.55745
110635,University of California-Berkeley,Berkeley,CA,94720,488,Alameda County,-122.260401,37.871519
110644,University of California-Davis,Davis,CA,95616-8678,472,Yolo County,-121.751958,38.539895
110653,University of California-Irvine,Irvine,CA,92697,348,Orange County,-117.841248,33.648434
110662,University of California-Los Angeles,Los Angeles,CA,90095-1405,348,Los Angeles County,-118.443901,34.068892
110671,University of California-Riverside,Riverside,CA,92521,348,Riverside County,-117.331098,33.97588
110680,University of California-San Diego,La Jolla,CA,92093,-2,San Diego County,-117.237793,32.876598
110699,University of California-San Francisco,San Francisco,CA,94143-0244,488,San Francisco County,-122.458049,37.762736
110705,University of California-Santa Barbara,Santa Barbara,CA,93106,-2,Santa Barbara County,-119.848031,34.415402
110714,University of California-Santa Cruz,Santa Cruz,CA,95064-1011,488,Santa Cruz County,-122.06799299999999,36.997258
110778,Sofia University,Palo Alto,CA,94303,488,Santa Clara County,-122.10866000000001,37.430325
110875,California Beauty School,Modesto,CA,95354,382,Stanislaus County,-120.99689,37.645216999999995
110918,California Christian College,Fresno,CA,93703-3599,260,Fresno County,-119.732752,36.767596000000005
110945,California College San Diego,San Diego,CA,92111-1009,-2,San Diego County,-117.167121,32.83529
111009,Le Cordon Bleu College of Culinary Arts-San Francisco,San Francisco,CA,94103,488,San Francisco County,-122.402643,37.765415000000004
111054,California Hair Design Academy,La Mesa,CA,91941-5055,-2,San Diego County,-117.02426100000001,32.765221000000004
111081,California Institute of the Arts,Valencia,CA,91355-2397,348,Los Angeles County,-118.56730300000001,34.393337
111188,California Maritime Academy,Vallejo,CA,94590,488,Solano County,-122.231551,38.069061
111391,California Western School of Law,San Diego,CA,92101-3046,-2,San Diego County,-117.16259699999999,32.721940000000004
111434,Canada College,Redwood City,CA,94061-1099,488,San Mateo County,-122.265549,37.447365000000005
111461,College of the Canyons,Santa Clarita,CA,91355-1899,348,Los Angeles County,-118.569524,34.403121
111513,Career Academy of Beauty,Garden Grove,CA,92845,348,Orange County,-118.031697,33.781017999999996
111638,Casa Loma College-Van Nuys,Van Nuys,CA,91405,348,Los Angeles County,-118.44833500000001,34.195438
111708,CET-San Diego,San Diego,CA,92102,-2,San Diego County,-117.122496,32.711715000000005
111717,CET-Sobrato,San Jose,CA,95110,488,Santa Clara County,-121.88698000000001,37.322722999999996
111726,CET-El Centro,El Centro,CA,92243,-2,Imperial County,-115.549079,32.790908
111744,CET-San Bernardino,San Bernardino,CA,92408,348,San Bernardino County,-117.26873799999998,34.075136
111762,CET-Watsonville,Watsonville,CA,95076,488,Santa Cruz County,-121.767991,36.931833000000005
111771,CET-Gilroy,Gilroy,CA,95020,488,Santa Clara County,-121.561429,37.015671000000005
111799,CET-Salinas,Salinas,CA,93901,-2,Monterey County,-121.652791,36.671634999999995
111887,Cerritos College,Norwalk,CA,90650-6298,348,Los Angeles County,-118.09726299999998,33.88584
111896,Cerro Coso Community College,Ridgecrest,CA,93555-9571,-2,Kern County,-117.66770600000001,35.567763
111920,Chabot College,Hayward,CA,94545,488,Alameda County,-122.10696899999999,37.642513
111939,Chaffey College,Rancho Cucamonga,CA,91737-3002,348,San Bernardino County,-117.573086,34.14705
111948,Chapman University,Orange,CA,92866,348,Orange County,-117.851481,33.793678
111966,Charles R Drew University of Medicine and Science,Los Angeles,CA,90059,348,Los Angeles County,-118.242791,33.925658
112075,Concordia University-Irvine,Irvine,CA,92612-3203,348,Orange County,-117.81063,33.6535
112084,San Diego Christian College,El Cajon,CA,92019-1157,-2,San Diego County,-116.90307299999999,32.799999
112127,Church Divinity School of the Pacific,Berkeley,CA,94709-1211,488,Alameda County,-122.26139099999999,37.876169
112172,Citrus College,Glendora,CA,91741-1899,348,Los Angeles County,-117.88526599999999,34.135487
112181,Citrus Heights Beauty College,Citris Heights,CA,95610-1410,472,Sacramento County,-121.289501,38.7131
112190,City College of San Francisco,San Francisco,CA,94112-1898,488,San Francisco County,-122.451155,37.725953000000004
112251,Claremont Graduate University,Claremont,CA,91711-6160,348,Los Angeles County,-117.71239399999999,34.103778000000005
112260,Claremont McKenna College,Claremont,CA,91711-6400,348,Los Angeles County,-117.706593,34.102323
112288,Milan Institute-Visalia,Visalia,CA,93277,546,Tulare County,-119.312151,36.271640000000005
112367,Clovis Adult Education,Clovis,CA,93611,260,Fresno County,-119.69018999999999,36.836915000000005
112376,Coast Community College District Office,Costa Mesa,CA,92626,348,Orange County,-117.91111599999999,33.669121000000004
112385,Coastline Community College,Fountain Valley,CA,92708-2597,348,Orange County,-117.86184399999999,33.609771
112394,Cogswell College,Sunnyvale,CA,94089,488,Santa Clara County,-122.02417700000001,37.407027
112446,Coleman University,San Diego,CA,92123-1506,-2,San Diego County,-117.13649299999999,32.821962
112455,COBA Academy,Orange,CA,92866,348,Orange County,-117.85348,33.788258
112525,Western University of Health Sciences,Pomona,CA,91766-1854,348,Los Angeles County,-117.74773200000001,34.058091999999995
112561,Columbia College,Sonora,CA,95370,-2,Tuolumne County,-120.387603,38.030361
112570,Columbia College-Hollywood,Tarzana,CA,91356-1411,348,Los Angeles County,-118.538394,34.179596000000004
112686,El Camino College-Compton Center,Compton,CA,90221-5393,348,Los Angeles County,-118.20918600000002,33.876665
112783,Western Beauty Institute,Panorama City,CA,91402,348,Los Angeles County,-118.449674,34.227357
112817,Contra Costa Community College District Office,Martinez,CA,94553,488,Contra Costa County,-122.134774,38.018943
112826,Contra Costa College,San Pablo,CA,94806-3195,488,Contra Costa County,-122.342386,37.968623
113096,Cosumnes River College,Sacramento,CA,95823-5799,472,Sacramento County,-121.42297099999999,38.453835999999995
113111,Crafton Hills College,Yucaipa,CA,92339-1799,348,San Bernardino County,-117.100826,34.038513
113193,Cuesta College,San Luis Obispo,CA,93403-8106,-2,San Luis Obispo County,-120.741624,35.329859
113218,Cuyamaca College,El Cajon,CA,92019,-2,San Diego County,-116.94104399999999,32.743072
113236,Cypress College,Cypress,CA,90630-5897,348,Orange County,-118.02388899999998,33.827625
113333,De Anza College,Cupertino,CA,95014,488,Santa Clara County,-122.04536499999999,37.319176
113397,Marinello Schools of Beauty-Hemet,Hemet,CA,92545,348,Riverside County,-116.99989199999999,33.746002000000004
113449,International School of Beauty Inc,Palm Desert,CA,92260-2740,348,Riverside County,-116.40392800000001,33.729555
113537,Dell'Arte International School of Physical Theatre,Blue Lake,CA,95525-0816,-2,Humboldt County,-123.988878,40.880871
113573,College of the Desert,Palm Desert,CA,92260,348,Riverside County,-116.38761000000001,33.732484
113582,Design Institute of San Diego,San Diego,CA,92121,-2,San Diego County,-117.14980800000001,32.731021999999996
113607,DeVry University-California,Pomona,CA,91768-2642,348,Los Angeles County,-117.80378400000001,34.062903999999996
113634,Diablo Valley College,Pleasant Hill,CA,94523,488,Contra Costa County,-122.06986100000002,37.968035
113698,Dominican University of California,San Rafael,CA,94901-2298,488,Marin County,-122.51465400000001,37.980014000000004
113704,Dominican School of Philosophy & Theology,Berkeley,CA,94708-1816,488,Alameda County,-122.26461200000001,37.881099
113856,East Los Angeles College,Monterey Park,CA,91754-6099,348,Los Angeles County,-118.14838400000001,34.039204999999995
113908,Marinello Schools of Beauty-Santa Clara,Santa Clara,CA,95050,488,Santa Clara County,-121.947773,37.347964000000005
113953,San Diego Continuing Education,San Diego,CA,92113,-2,San Diego County,-117.101304,32.699169
113980,El Camino Community College District,Torrance,CA,90506,348,Los Angeles County,-118.326623,33.885585999999996
114044,Elegance International,Hollywood,CA,90028-6106,348,Los Angeles County,-118.33833200000001,34.062216
114071,Marinello Schools of Beauty-Burbank,Burbank,CA,91502,348,Los Angeles County,-118.309749,34.181902
114080,Marinello Schools of Beauty-Moreno Valley,Moreno Valley,CA,92553,348,Riverside County,-117.228072,33.915981
114114,Emperor's College of Traditional Oriental Medicine,Santa Monica,CA,90403,348,Los Angeles County,-118.4847,34.0303
114123,Empire College School of Business,Santa Rosa,CA,95403-2126,488,Sonoma County,-122.728642,38.467789
114266,Evergreen Valley College,San Jose,CA,95135-1598,488,Santa Clara County,-121.766686,37.301736
114354,Fashion Institute of Design & Merchandising-Los Angeles,Los Angeles,CA,90015-1421,348,Los Angeles County,-118.25993000000001,34.044209
114372,Fashion Careers College,San Diego,CA,921103555,-2,San Diego County,-117.20726599999999,32.780823
114390,Fashion Institute of Design & Merchandising-San Francisco,San Francisco,CA,94108-5805,488,San Francisco County,-122.406503,37.786324
114415,Fashion Institute of Design & Merchandising-Orange County,Irvine,CA,92614-5610,348,Orange County,-117.852254,33.691963
114433,Feather River Community College District,Quincy,CA,95971-9124,-2,Plumas County,-120.970877,39.952395
114460,Federico Beauty Institute,Sacramento,CA,95834,472,Sacramento County,-121.49776100000001,38.64883
114549,Fielding Graduate University,Santa Barbara,CA,93105-3538,-2,Santa Barbara County,-119.717151,34.4294
114585,Five Branches University,Santa Cruz,CA,95062,488,Santa Cruz County,-121.998478,36.964133000000004
114628,Hair California Beauty Academy,Orange,CA,92867,348,Orange County,-117.836692,33.805786
114716,Foothill College,Los Altos Hills,CA,94022,488,Santa Clara County,-122.12833,37.361104
114734,Franciscan School of Theology,Berkeley,CA,94709-1208,488,Alameda County,-122.260924,37.877133
114761,Fredrick and Charles Beauty College,Eureka,CA,95501,-2,Humboldt County,-124.165778,40.798811
114789,Fresno City College,Fresno,CA,93741,260,Fresno County,-119.795129,36.767516
114813,Fresno Pacific University,Fresno,CA,93702-4709,260,Fresno County,-119.731953,36.725279
114831,Foothill-De Anza Community College District,Los Altos Hills,CA,94022-4599,488,Santa Clara County,-122.127054,37.360960999999996
114840,Fuller Theological Seminary in California,Pasadena,CA,91182,348,Los Angeles County,-118.14026100000001,34.14778
114859,Fullerton College,Fullerton,CA,92832-2095,348,Orange County,-117.91698600000001,33.876794
114895,Galen College of Medical and Dental Assistants,Clovis,CA,93611-4002,260,Fresno County,-119.67999099999999,36.80706
114938,Gavilan College,Gilroy,CA,95020,488,Santa Clara County,-121.568174,36.973273999999996
114947,Gemological Institute of America-Carlsbad,Carlsbad,CA,92008,-2,San Diego County,-117.31876499999998,33.131313
115001,Glendale Community College,Glendale,CA,91208-2894,348,Los Angeles County,-118.228251,34.166422
115010,Glendale Career College,Glendale,CA,91203,348,Los Angeles County,-118.25456100000001,34.14969
115083,Golden Gate University-San Francisco,San Francisco,CA,94105-2968,488,San Francisco County,-122.398785,37.789208
115126,Golden West College,Huntington Beach,CA,92647-2710,348,Orange County,-118.00303600000001,33.733775
115214,Graduate Theological Union,Berkeley,CA,94709,488,Alameda County,-122.261847,37.87554
115287,Grossmont-Cuyamaca Community College District,El Cajon,CA,92020-1799,-2,San Diego County,-117.00729199999999,32.816054
115296,Grossmont College,El Cajon,CA,92020-1799,-2,San Diego County,-117.00729199999999,32.816077
115357,Salon Success Academy-San Bernardino,San Bernardino,CA,92405,348,San Bernardino County,-117.28761499999999,34.135988
115393,Hartnell College,Salinas,CA,93901,-2,Monterey County,-121.66876299999998,36.673052
115409,Harvey Mudd College,Claremont,CA,91711,348,Los Angeles County,-117.710594,34.106137
115454,Heald College-Rancho Cordova,Rancho Cordova,CA,95670,472,Sacramento County,-121.28008600000001,38.594382
115472,Heald College-Fresno,Fresno,CA,93704,260,Fresno County,-119.795525,36.822401
115490,Heald College-San Jose,Milpitas,CA,95035-8008,488,Santa Clara County,-121.89391100000002,37.410897
115515,Heald College-San Francisco,San Francisco,CA,94103,488,San Francisco County,-122.404299,37.781933
115533,Heald College-Concord,Concord,CA,94520-0522,488,Contra Costa County,-122.030047,38.018938
115658,Hilltop Beauty School,Daly City,CA,94014,488,San Mateo County,-122.461674,37.705545
115728,Holy Names University,Oakland,CA,94619-1699,488,Alameda County,-122.18717,37.802654
115746,Pacifica Graduate Institute,Carpinteria,CA,93013,-2,Santa Barbara County,-119.58026399999999,34.420464
115755,Humboldt State University,Arcata,CA,95521-8299,-2,Humboldt County,-124.0814,40.8741
115773,Humphreys College-Stockton and Modesto Campuses,Stockton,CA,95207-3896,488,San Joaquin County,-121.316401,38.011051
115861,Imperial Valley College,Imperial,CA,92251-0158,-2,Imperial County,-115.50390300000001,32.827563
115931,Institute for Business and Technology,Santa Clara,CA,95051-1303,488,Santa Clara County,-121.96954099999999,37.368642
116040,LA College International,Los Angeles,CA,900101308,348,Los Angeles County,-118.29203899999999,34.061425
116226,Interior Designers Institute,Newport Beach,CA,92660,348,Orange County,-117.86572199999999,33.641393
116350,Toni & Guy Hairdressing Academy-Santa Monica,Santa Monica,CA,90401,348,Los Angeles County,-118.49489799999999,34.017466
116439,Irvine Valley College,Irvine,CA,92618-0301,348,Orange County,-117.778575,33.675079
116466,ITT Technical Institute-National City,National City,CA,91950,-2,San Diego County,-117.10594099999999,32.66165
116475,ITT Technical Institute-San Dimas,San Dimas,CA,91773,348,Los Angeles County,-117.818401,34.102405
116484,ITT Technical Institute-Orange,Orange,CA,92868,348,Orange County,-117.896161,33.78006
116563,Bellus Academy-El Cajon,El Cajon,CA,92021,-2,San Diego County,-116.945728,32.794827000000005
116660,Joe Blasco Makeup Artist Training Center,Los Angeles,CA,90027-5580,348,Los Angeles County,-118.28704099999999,34.10148
116712,John F Kennedy University,Pleasant Hill,CA,94523-4817,488,Contra Costa County,-122.183972,37.881794
116846,American Jewish University,Los Angeles,CA,90077-1519,348,Los Angeles County,-118.471764,34.128099
117052,Reedley College,Reedley,CA,93654,260,Fresno County,-119.45993,36.605968
117104,Life Pacific College,San Dimas,CA,91773-3298,348,Los Angeles County,-117.830997,34.089421
117113,The Art Institute of California-Argosy University San Diego,San Diego,CA,92108-4423,-2,San Diego County,-117.155395,32.778278
117140,University of La Verne,La Verne,CA,91750-4401,348,Los Angeles County,-117.77263400000001,34.10086
117168,Laguna College of Art and Design,Laguna Beach,CA,92651,348,Orange County,-117.77256399999999,33.561448
117195,Lake Tahoe Community College,South Lake Tahoe,CA,96150,472,El Dorado County,-119.971631,38.926864
117238,Lancaster Beauty School,Lancaster,CA,93534,348,Los Angeles County,-118.148664,34.695646
117247,Laney College,Oakland,CA,94607,488,Alameda County,-122.26243400000001,37.796205
117274,Lassen Community College,Susanville,CA,96130,-2,Lassen County,-120.631169,40.431327
117520,Life Chiropractic College West,Hayward,CA,94545-2800,488,Alameda County,-122.11627,37.637639
117557,Lincoln University,Oakland,CA,94612-2801,488,Alameda County,-122.269745,37.804788
117575,Southern California Seminary,El Cajon,CA,92019-1108,-2,San Diego County,-116.900531,32.803259000000004
117627,La Sierra University,Riverside,CA,92515-8247,348,Riverside County,-117.49707099999999,33.908834000000006
117636,Loma Linda University,Loma Linda,CA,92350,348,San Bernardino County,-117.26105600000001,34.051518
117645,Long Beach City College,Long Beach,CA,90808-1706,348,Los Angeles County,-118.135819,33.831741
117672,Southern California University of Health Sciences,Whittier,CA,90604,348,Los Angeles County,-117.985447,33.924638
117681,Los Angeles Community College District Office,Los Angeles,CA,90017,348,Los Angeles County,-118.25806299999999,34.048775
117690,Los Angeles Harbor College,Wilmington,CA,90744-2397,348,Los Angeles County,-118.28186000000001,33.784201
117706,Los Angeles Pierce College,Woodland Hills,CA,91371-0002,348,Los Angeles County,-118.57719399999999,34.184184
117715,Los Angeles Southwest College,Los Angeles,CA,90047-4899,348,Los Angeles County,-118.304674,33.929586
117724,Los Angeles Trade Technical College,Los Angeles,CA,90015-4181,348,Los Angeles County,-118.26911299999999,34.032623
117733,Los Angeles Valley College,Valley Glen,CA,91401-4096,348,Los Angeles County,-118.421446,34.176406
117751,The Master's College and Seminary,Santa Clarita,CA,91321-1200,348,Los Angeles County,-118.517422,34.38214
117788,Los Angeles City College,Los Angeles,CA,90029,348,Los Angeles County,-118.292169,34.087301000000004
117803,Los Angeles County College of Nursing and Allied Health,Los Angeles,CA,90033-1084,348,Los Angeles County,-118.211418,34.061605
117867,Los Angeles Mission College,Sylmar,CA,91342-3200,348,Los Angeles County,-118.419087,34.314944
117894,Los Medanos College,Pittsburg,CA,94565,488,Contra Costa County,-121.861122,38.005552
117900,Los Rios Community College District Office,Sacramento,CA,95825-3981,472,Sacramento County,-121.41714499999999,38.579859
117928,The Art Institute of California-Argosy University San Francisco,San Francisco,CA,94102-4908,488,San Francisco County,-122.417185,37.803958
117946,Loyola Marymount University,Los Angeles,CA,90045-2659,348,Los Angeles County,-118.415655,33.970633
117955,Lu Ross Academy,Ventura,CA,93001-2729,348,Ventura County,-119.293952,34.278034000000005
118116,Manchester Beauty College,Fresno,CA,93726,260,Fresno County,-119.79116,36.792868
118125,Tulare Beauty College,Tulare,CA,93274,546,Tulare County,-119.367947,36.204102
118134,Lyles Bakersfield College of Beauty,Bakersfield,CA,93301,-2,Kern County,-119.023903,35.386525
118143,Lyles Fresno College of Beauty,Fresno,CA,93710,260,Fresno County,-119.773747,36.836251000000004
118161,Lytles Redwood Empire Beauty College Inc,Santa Rosa,CA,95403,488,Sonoma County,-122.758546,38.508581
118189,MTI Business College Inc,Stockton,CA,95207-4349,488,San Joaquin County,-121.308527,38.007318
118198,MTI College,Sacramento,CA,95841-9817,472,Sacramento County,-121.342568,38.661377
118259,Kaplan College-Sacramento,Sacramento,CA,95821,472,Sacramento County,-121.380453,38.644462
118277,Kaplan College-San Diego,San Diego,CA,92123,-2,San Diego County,-117.133017,32.821707
118286,Kaplan College-Vista,Vista,CA,92083-7736,-2,San Diego County,-117.22081599999999,33.17244
118347,College of Marin,Kentfield,CA,94904-2590,488,Marin County,-122.54993600000002,37.955014
118356,Marinello Schools of Beauty-Los Angeles,Los Angeles,CA,90023,348,Los Angeles County,-118.21986499999998,34.027512
118541,Marymount California University,Rancho Palos Verdes,CA,90275-6299,348,Los Angeles County,-118.333404,33.734629999999996
118684,Mendocino College,Ukiah,CA,95482,-2,Mendocino County,-123.22903000000001,39.19119
118693,Menlo College,Atherton,CA,94027-4301,488,San Mateo County,-122.181444,37.452906
118718,Merced College,Merced,CA,95348-2898,382,Merced County,-120.476726,37.335347999999996
118772,Merritt College,Oakland,CA,94619-3196,488,Alameda County,-122.16733500000001,37.789088
118888,Mills College,Oakland,CA,94613,488,Alameda County,-122.18789,37.782639
118912,MiraCosta College,Oceanside,CA,92056-3899,-2,San Diego County,-117.302283,33.191231
118921,Marinello Schools of Beauty-San Francisco,San Francisco,CA,94103,488,San Francisco County,-122.410416,37.779467
118930,Mission College,Santa Clara,CA,95054-1897,488,Santa Clara County,-121.982174,37.391323
118958,Modern Beauty Academy,Oxnard,CA,93030,348,Ventura County,-119.181423,34.195384000000004
118967,Kaplan College-North Hollywood,North Hollywood,CA,91606-3231,348,Los Angeles County,-118.39613100000001,34.182673
118976,Modesto Junior College,Modesto,CA,95350-5800,382,Stanislaus County,-121.009723,37.652042
118994,Moler Barber College,Oakland,CA,94609-2419,488,Alameda County,-122.26509399999999,37.826826000000004
119058,Monterey Institute of International Studies,Monterey,CA,93940,-2,Monterey County,-121.896813,36.599827000000005
119067,Monterey Peninsula College,Monterey,CA,93940-4799,-2,Monterey County,-121.885774,36.590826
119137,Moorpark College,Moorpark,CA,93021-1695,348,Ventura County,-118.836624,34.300018
119164,Mt San Antonio College,Walnut,CA,91789-1399,348,Los Angeles County,-117.8437,34.043786
119173,Mount St Mary's College,Los Angeles,CA,90049-1599,348,Los Angeles County,-118.480471,34.082112
119216,Mt San Jacinto Community College District,San Jacinto,CA,92583-2399,348,Riverside County,-116.97006299999998,33.807364
119234,Mueller College,San Diego,CA,92108-3002,-2,San Diego County,-117.16374099999999,32.76457
119270,Musicians Institute,Hollywood,CA,90028,348,Los Angeles County,-118.33768500000001,34.101496999999995
119331,Napa Valley College,Napa,CA,94558-6236,488,Napa County,-122.27256499999999,38.27254
119340,Everest College-San Francisco,San Francisco,CA,94103-9946,488,San Francisco County,-122.40481499999999,37.784524
119359,Everest College-Reseda,Reseda,CA,91335-4631,348,Los Angeles County,-118.526677,34.200824
119368,Everest College-LA Wilshire,Los Angeles,CA,90010,348,Los Angeles County,-118.299345,34.061262
119438,Everest College-San Jose,San Jose,CA,95128,488,Santa Clara County,-121.95065100000001,37.302842
119456,Everest College-Gardena,Gardena,CA,90247,348,Los Angeles County,-118.292896,33.893072
119465,Everest College-Alhambra,Alhambra,CA,91803,348,Los Angeles County,-118.148684,34.080181
119508,Everest College-San Bernardino,San Bernardino,CA,92408,348,San Bernardino County,-117.28222,34.059754
119544,The National Hispanic University,San Jose,CA,95127-3823,488,Santa Clara County,-121.815921,37.359057
119553,National Holistic Institute,Emeryville,CA,94608-2008,488,Alameda County,-122.287672,37.841898
119605,National University,La Jolla,CA,92037-1011,-2,San Diego County,-117.244243,32.909469
119678,Naval Postgraduate School,Monterey,CA,93943,-2,Monterey County,-121.874248,36.597159000000005
119775,Newschool of Architecture and Design,San Diego,CA,92101,-2,San Diego County,-117.153305,32.71331
119845,Newberry School of Beauty,Granada Hills,CA,91344-7401,348,Los Angeles County,-118.49946899999999,34.25748
119951,Adrian's College of Beauty Modesto,Modesto,CA,95350-2381,382,Stanislaus County,-120.99275300000001,37.677778
120023,North Orange County Community College District,Anaheim,CA,92801-1819,348,Orange County,-117.945559,33.849957
120069,North-West College-Pomona,Pomona,CA,91768,348,Los Angeles County,-117.751861,34.06203
120078,North-West College-West Covina,West Covina,CA,91790,348,Los Angeles County,-117.949583,34.072071
120087,North-West College-Pasadena,Pasadena,CA,91101,348,Los Angeles County,-118.13926599999999,34.146907
120166,Northwestern Polytechnic University,Fremont,CA,94539,488,Alameda County,-121.92545700000001,37.47857
120184,Notre Dame de Namur University,Belmont,CA,94002-1908,488,San Mateo County,-122.284618,37.517501
120254,Occidental College,Los Angeles,CA,90041-3392,348,Los Angeles County,-118.210783,34.126224
120272,Oceanside College of Beauty,Oceanside,CA,92054-5356,-2,San Diego County,-117.365276,33.178889
120290,Ohlone College,Fremont,CA,94539-0390,488,Alameda County,-121.914597,37.527956
120342,Orange Coast College,Costa Mesa,CA,92626,348,Orange County,-117.911401,33.670171
120403,Otis College of Art and Design,Los Angeles,CA,90045-3505,348,Los Angeles County,-118.416615,33.956607
120421,Oxnard College,Oxnard,CA,93033-6699,348,Ventura County,-119.15548999999999,34.164899
120537,Hope International University,Fullerton,CA,92831-3199,348,Orange County,-117.88573000000001,33.87616
120661,Concorde Career College-San Diego,San Diego,CA,92113-1964,-2,San Diego County,-117.10186999999999,32.70406
120698,Palo Alto University,Palo Alto,CA,94304-1337,488,Santa Clara County,-122.186022,37.383251
120740,Pacific Lutheran Theological Seminary,Berkeley,CA,94708-1597,488,Alameda County,-122.260201,37.898171999999995
120768,Pacific Oaks College,Pasadena,CA,91103,348,Los Angeles County,-118.15158000000001,34.153088000000004
120795,Pacific School of Religion,Berkeley,CA,94709,488,Alameda County,-122.26333100000001,37.876599
120838,Pacific States University,Los Angeles,CA,90010,348,Los Angeles County,-118.29984099999999,34.0607
120865,Pacific Union College,Angwin,CA,94508-9707,488,Napa County,-122.44963899999999,38.574090000000005
120883,University of the Pacific,Stockton,CA,95211-0197,488,San Joaquin County,-121.307296,37.980624
120953,Palo Verde College,Blythe,CA,92225,348,Riverside County,-114.651698,33.661538
120971,Palomar College,San Marcos,CA,92069-1487,-2,San Diego County,-117.18171799999999,33.15019
121017,Paris Beauty College,Concord,CA,94520,488,Contra Costa County,-122.043458,37.972204
121044,Pasadena City College,Pasadena,CA,91106-2003,348,Los Angeles County,-118.118196,34.144552000000004
121150,Pepperdine University,Malibu,CA,90263,348,Los Angeles County,-118.707677,34.041911999999996
121178,Peralta Community College System Office,Oakland,CA,94606,488,Alameda County,-122.25971899999999,37.793018
121257,Pitzer College,Claremont,CA,91711-6101,348,Los Angeles County,-117.70593899999999,34.103408
121275,Platt College-San Diego,San Diego,CA,92115-3919,-2,San Diego County,-117.063483,32.763729999999995
121309,Point Loma Nazarene University,San Diego,CA,92106-2899,-2,San Diego County,-117.251204,32.713295
121345,Pomona College,Claremont,CA,91711-6319,348,Los Angeles County,-117.71194399999999,34.098298
121363,Porterville College,Porterville,CA,93257,546,Tulare County,-119.01436799999999,36.049256
121381,Westwood College-South Bay,Torrance,CA,90502,348,Los Angeles County,-118.289777,33.851820000000004
121433,Professional Institute of Beauty,El Monte,CA,91731,348,Los Angeles County,-118.038,34.075
121619,Santa Ana College,Santa Ana,CA,92706-3398,348,Orange County,-117.888384,33.759203
121628,Pardee RAND Graduate School,Santa Monica,CA,90407-2138,348,Los Angeles County,-118.49047,34.009975
121637,Shasta School of Cosmetology,Redding,CA,96003,454,Shasta County,-122.38721100000001,40.59708
121691,University of Redlands,Redlands,CA,92373-0999,348,San Bernardino County,-117.163847,34.063571
121707,College of the Redwoods,Eureka,CA,95501-9300,-2,Humboldt County,-124.195075,40.696744
121859,Salon Success Academy-Upland,Upland,CA,91786,348,San Bernardino County,-117.631091,34.108353
121868,Salon Success Academy-Corona,Corona,CA,92879,348,Riverside County,-117.535451,33.84778
121886,Rio Hondo College,Whittier,CA,90601-1616,348,Los Angeles County,-118.03332900000001,34.019878000000006
121901,Riverside City College,Riverside,CA,92506,348,Riverside County,-117.38054,33.971481
121983,Argosy University-San Francisco Bay Area,Alameda,CA,94501,488,Alameda County,-122.267523,37.781238
121992,Rosemead Beauty School,Rosemead,CA,91770-1639,348,Los Angeles County,-118.082793,34.080756
122117,Dongguk University-Los Angeles,Los Angeles,CA,90020-1704,348,Los Angeles County,-118.289927,34.066226
122180,Sacramento City College,Sacramento,CA,95822-1386,472,Sacramento County,-121.49166000000001,38.541883
122205,Saddleback College,Mission Viejo,CA,92692-3635,348,Orange County,-117.664876,33.551925
122250,Saint Patrick's Seminary and University,Menlo Park,CA,94025,488,San Mateo County,-122.167951,37.458859999999994
122296,Samuel Merritt University,Oakland,CA,94609,488,Alameda County,-122.26685400000001,37.819955
122320,San Diego Community College District-District Office,San Diego,CA,92108-3883,-2,San Diego County,-117.12114,32.776348
122339,San Diego City College,San Diego,CA,92101-4787,-2,San Diego County,-117.151641,32.718855
122366,Golf Academy of America-Carlsbad,Carlsbad,CA,92008,-2,San Diego County,-117.283394,33.12291
122375,San Diego Mesa College,San Diego,CA,92111-4998,-2,San Diego County,-117.169072,32.804935
122384,San Diego Miramar College,San Diego,CA,92126-2999,-2,San Diego County,-117.120888,32.909546
122409,San Diego State University,San Diego,CA,92182,-2,San Diego County,-117.071228,32.77525
122436,University of San Diego,San Diego,CA,92110-2492,-2,San Diego County,-117.188721,32.77142
122454,San Francisco Art Institute,San Francisco,CA,94133-2299,488,San Francisco County,-122.417,37.803575
122506,San Francisco Conservatory of Music,San Francisco,CA,94102-6011,488,San Francisco County,-122.420143,37.775321999999996
122597,San Francisco State University,San Francisco,CA,94132,488,San Francisco County,-122.477905,37.721345
122603,San Francisco Theological Seminary,San Anselmo,CA,94960-0000,488,Marin County,-122.564302,37.969594
122612,University of San Francisco,San Francisco,CA,94117-1080,488,San Francisco County,-122.45097700000001,37.775564
122649,San Joaquin College of Law,Clovis,CA,93612-1312,260,Fresno County,-119.6978,36.823978000000004
122658,San Joaquin Delta College,Stockton,CA,95207,488,San Joaquin County,-121.317226,37.994642999999996
122685,San Joaquin Valley College-Visalia,Visalia,CA,93291-9283,546,Tulare County,-119.38498100000001,36.328049
122694,San Joaquin Valley College-Bakersfield,Bakersfield,CA,93309,-2,Kern County,-119.062251,35.35275
122728,William Jessup University,Rocklin,CA,95765-3707,472,Placer County,-121.29231200000001,38.819728000000005
122737,San Jose-Evergreen Community College District,San Jose,CA,95135-1599,488,Santa Clara County,-121.771202,37.300847
122746,San Jose City College,San Jose,CA,95128-2798,488,Santa Clara County,-121.92974699999999,37.316293
122755,San Jose State University,San Jose,CA,95192-0001,488,Santa Clara County,-121.88121399999999,37.335201
122782,San Mateo County Community College District Office,San Mateo,CA,94402,488,San Mateo County,-122.337603,37.531184
122791,College of San Mateo,San Mateo,CA,94402-3784,488,San Mateo County,-122.336078,37.534357
122834,Santa Barbara Business College-Bakersfield,Bakersfield,CA,93309,-2,Kern County,-119.061264,35.359544
122843,Westwood College-Los Angeles,Los Angeles,CA,90010,348,Los Angeles County,-118.293292,34.061397
122852,Santa Barbara Business College-Santa Maria,Santa Maria,CA,93454,-2,Santa Barbara County,-119.699744,34.403862
122889,Santa Barbara City College,Santa Barbara,CA,93109-2394,-2,Santa Barbara County,-119.698045,34.406788
122931,Santa Clara University,Santa Clara,CA,95053,488,Santa Clara County,-121.938189,37.352706
122977,Santa Monica College,Santa Monica,CA,90405-1628,348,Los Angeles County,-118.470431,34.018968
123013,Santa Rosa Junior College,Santa Rosa,CA,95401-4395,488,Sonoma County,-122.720689,38.454159999999995
123095,Saybrook University,San Francisco,CA,94111-1920,488,San Francisco County,-122.40008799999998,37.798417
123165,Scripps College,Claremont,CA,91711-3905,348,Los Angeles County,-117.71133600000002,34.103654999999996
123208,Wyotech-Fremont,Fremont,CA,94539,488,Alameda County,-121.919395,37.469279
123217,College of the Sequoias,Visalia,CA,93277-2214,546,Tulare County,-119.314775,36.322957
123280,Shasta Bible College and Graduate School,Redding,CA,96002,454,Shasta County,-122.31574199999999,40.564208
123299,Shasta College,Redding,CA,96003,454,Shasta County,-122.317982,40.625731
123341,Sierra College,Rocklin,CA,95677-3397,472,Placer County,-121.21264599999999,38.792758
123350,Sierra College of Beauty,Merced,CA,95340,382,Merced County,-120.495668,37.306585
123396,Sierra Valley College of Court Reporting,Fresno,CA,93726,260,Fresno County,-119.773017,36.802756
123448,Trinity Law School,Santa Ana,CA,92705,348,Orange County,-117.85205900000001,33.766071000000004
123457,Simpson University,Redding,CA,96003-8606,454,Shasta County,-122.333048,40.61331
123484,College of the Siskiyous,Weed,CA,96094-2899,-2,Siskiyou County,-122.38916599999999,41.413848
123493,Charles A Jones Career and Education Center,Sacramento,CA,95824-1529,472,Sacramento County,-121.44111000000001,38.51651
123509,Skyline College,San Bruno,CA,94066-1698,488,San Mateo County,-122.465978,37.630542999999996
123527,San Bernardino Valley College,San Bernardino,CA,92410-2798,348,San Bernardino County,-117.313814,34.088716999999995
123554,Saint Mary's College of California,Moraga,CA,94575,488,Contra Costa County,-122.10679499999999,37.83997
123563,Solano Community College,Fairfield,CA,94534-3197,488,Solano County,-122.120232,38.235513
123572,Sonoma State University,Rohnert Park,CA,94928-3609,488,Sonoma County,-122.67326100000001,38.341023
123581,Pinnacle College,Alhambra,CA,91803,348,Los Angeles County,-118.150493,34.081485
123633,South Baylo University,Anaheim,CA,92801-1701,348,Orange County,-117.95866299999999,33.847936
123642,South Coast College,Orange,CA,92868-2609,348,Orange County,-117.874109,33.787946000000005
123651,Vanguard University of Southern California,Costa Mesa,CA,92626,348,Orange County,-117.90091100000001,33.662686
123679,Concorde Career College-Garden Grove,Garden Grove,CA,92840-9201,348,Orange County,-117.938395,33.774741
123800,Southwestern College,Chula Vista,CA,91910-7299,-2,San Diego County,-116.997215,32.641566999999995
123855,St John's Seminary,Camarillo,CA,93012-2500,348,Ventura County,-119.001395,34.244034
123916,Starr King School for Ministry,Berkeley,CA,94709-1209,488,Alameda County,-122.261778,37.876939
123925,State Center Community College District,Fresno,CA,93704,260,Fresno County,-119.792755,36.768865000000005
123943,Marshall B Ketchum University,Fullerton,CA,92831-1699,348,Orange County,-117.88615800000001,33.889819
123952,Southern California Institute of Architecture,Los Angeles,CA,90013-1822,348,Los Angeles County,-118.232703,34.04365
123961,University of Southern California,Los Angeles,CA,90089,348,Los Angeles County,-118.28385800000001,34.021058000000004
123970,Southwestern Law School,Los Angeles,CA,90010-1106,348,Los Angeles County,-118.288375,34.061558000000005
124113,Taft College,Taft,CA,93268,-2,Kern County,-119.459751,35.149343
124283,Claremont School of Theology,Claremont,CA,91711-3199,348,Los Angeles County,-117.71525600000001,34.107602
124292,Thomas Aquinas College,Santa Paula,CA,93060,348,Ventura County,-119.08714099999999,34.429009
124344,Marinello Schools of Beauty-Lake Forest,Lake Forest,CA,92630,348,Orange County,-117.704674,33.61932
124487,Epic Bible College,Sacramento,CA,95841,472,Sacramento County,-121.362311,38.644909999999996
124557,University of California-System Administration Central Office,Oakland,CA,94607-5200,488,Alameda County,-122.27134,37.802222
124681,United Education Institute-Huntington Park Campus,Huntington Park,CA,90255,348,Los Angeles County,-118.226206,33.986057
124706,Concorde Career College-San Bernardino,San Bernardino,CA,92408-3403,348,San Bernardino County,-117.28398,34.06722
124779,Universal College of Beauty Inc-Los Angeles 1,Los Angeles,CA,90044,348,Los Angeles County,-118.292148,33.959435
124937,Concorde Career College-North Hollywood,North Hollywood,CA,91606-3134,348,Los Angeles County,-118.403755,34.186464
125019,Ventura County Community College System Office,Ventura,CA,93001,348,Ventura County,-119.230607,34.277246000000005
125028,Ventura College,Ventura,CA,93003-3872,348,Ventura County,-119.230659,34.277035
125037,The Santa Barbara and Ventura Colleges of Law-Ventura,Ventura,CA,93003,348,Ventura County,-119.233149,34.257282000000004
125082,Victor Valley Beauty College Inc,Victorville,CA,92395,348,San Bernardino County,-117.303918,34.528578
125091,Victor Valley College,Victorville,CA,92395-5850,348,San Bernardino County,-117.26145600000001,34.472231
125170,Berkeley City College,Berkeley,CA,94704,488,Alameda County,-122.26979299999999,37.870470000000005
125222,West Valley Mission Community College District Office,Saratoga,CA,95070-5698,488,Santa Clara County,-122.01107900000001,37.262847
125231,Walden University,Minneapolis,MN,55401,378,Hennepin County,-93.265731,44.98137
125310,Waynes College of Beauty,Salinas,CA,93906-2830,-2,Monterey County,-121.65231100000001,36.70055
125462,West Hills College-Coalinga,Coalinga,CA,93210,260,Fresno County,-120.356747,36.147890999999994
125471,West Los Angeles College,Culver City,CA,90230-3519,348,Los Angeles County,-118.387578,34.005578
125499,West Valley College,Saratoga,CA,95070-5698,488,Santa Clara County,-122.009701,37.263133
125532,Carrington College California-Sacramento,Sacramento,CA,95826,472,Sacramento County,-121.36891999999999,38.561777
125718,Westminster Theological Seminary in California,Escondido,CA,92027,-2,San Diego County,-117.046371,33.121446999999996
125727,Westmont College,Santa Barbara,CA,93108-1089,-2,Santa Barbara County,-119.66193200000001,34.449265000000004
125763,Whittier College,Whittier,CA,90601,348,Los Angeles County,-118.028402,33.977625
125897,Woodbury University,Burbank,CA,91510-7846,348,Los Angeles County,-118.34069199999999,34.209226
126012,The Wright Institute,Berkeley,CA,94704-1796,488,Alameda County,-122.25316799999999,37.868221000000005
126030,Western State College of Law at Argosy University,Fullerton,CA,92831-3014,348,Orange County,-117.890274,33.880672
126049,Thomas Jefferson School of Law,San Diego,CA,92101,-2,San Diego County,-117.154191,32.71013
126076,Yeshiva Ohr Elchonon Chabad West Coast Talmudical Seminary,Los Angeles,CA,90046,348,Los Angeles County,-118.34668799999999,34.085494
126100,Yosemite Community College District Office,Modesto,CA,95358,382,Stanislaus County,-121.040011,37.661041
126119,Yuba College,Marysville,CA,95901,472,Yuba County,-121.53931599999999,39.125995
126164,The Salon Professional Academy-Grand Junction,Grand Junction,CO,81501,-2,Mesa County,-108.56496100000001,39.07799
126182,Adams State University,Alamosa,CO,81101,-2,Alamosa County,-105.88094299999999,37.477238
126207,Aims Community College,Greeley,CO,80632,216,Weld County,-104.764335,40.409037
126289,Arapahoe Community College,Littleton,CO,80160-9002,216,Arapahoe County,-105.018631,39.607504999999996
126359,Bel-Rea Institute of Animal Technology,Denver,CO,80247,216,Arapahoe County,-104.87529199999999,39.686066
126401,Everest College-Colorado Springs,Colorado Springs,CO,80916,-2,El Paso County,-104.740267,38.807095000000004
126410,Boulder College of Massage Therapy,Boulder,CO,803013295,216,Boulder County,-105.207489,40.064782
126562,University of Colorado Denver,Denver,CO,80217-3364,216,Denver County,-104.99918100000001,39.74603
126580,University of Colorado Colorado Springs,Colorado Springs,CO,80918,-2,El Paso County,-104.800296,38.892734999999995
126605,Redstone College,Broomfield,CO,80021-3465,216,Broomfield County,-105.119096,39.914821999999994
126614,University of Colorado Boulder,Boulder,CO,80309-0017,216,Boulder County,-105.26706100000001,40.004415
126669,Colorado Christian University,Lakewood,CO,80226,216,Jefferson County,-105.09483600000002,39.711701
126678,Colorado College,Colorado Springs,CO,80903,-2,El Paso County,-104.82422,38.84657
126687,Concorde Career College-Aurora,Aurora,CO,80010-4314,216,Arapahoe County,-104.86708899999999,39.718699
126702,The Art Institute of Colorado,Denver,CO,80203-2983,216,Denver County,-104.98584699999999,39.735587
126711,Colorado Mountain College,Glenwood Springs,CO,81601-0233,233,Garfield County,-107.32439099999999,39.54636
126748,Colorado Northwestern Community College,Rangely,CO,81648-3598,-2,Rio Blanco County,-108.790296,40.080745
126775,Colorado School of Mines,Golden,CO,80401,216,Jefferson County,-105.227148,39.75079
126784,Colorado School of Trades,Lakewood,CO,80215-2996,216,Jefferson County,-105.103945,39.741009000000005
126818,Colorado State University-Fort Collins,Fort Collins,CO,80523-0100,-2,Larimer County,-105.08083,40.574759
126827,Colorado Technical University-Colorado Springs,Colorado Springs,CO,80907-3812,-2,El Paso County,-104.833928,38.894265000000004
126854,Empire Beauty School-Lakewood,Lakewood,CO,80226,216,Jefferson County,-105.082104,39.722781
126863,Community College of Aurora,Aurora,CO,80011-9036,216,Arapahoe County,-104.801861,39.717766999999995
126872,College America-Denver,Denver,CO,80222,216,Denver County,-104.94118,39.691571
126915,Delta Montrose Technical College,Delta,CO,81416,-2,Delta County,-108.031072,38.702524
126924,Prince Institute-Rocky Mountains,Westminster,CO,80031-2901,216,Jefferson County,-105.065051,39.859891
126942,Community College of Denver,Denver,CO,80204-2026,216,Denver County,-105.00300700000001,39.74142
126951,Lincoln College of Technology-Denver,Denver,CO,80239,216,Denver County,-104.856171,39.776509999999995
126979,Denver Seminary,Littleton,CO,80120,216,Arapahoe County,-105.02236299999998,39.600595
127024,Westwood College-Denver North,Denver,CO,80221,216,Adams County,-104.98638600000001,39.830428999999995
127060,University of Denver,Denver,CO,80208,216,Denver County,-104.964625,39.695954
127158,Emily Griffith Technical College,Denver,CO,80204-2197,216,Denver County,-104.995303,39.741034
127185,Fort Lewis College,Durango,CO,81301-3999,-2,La Plata County,-107.867003,37.275428000000005
127200,Front Range Community College,Westminster,CO,80031,216,Adams County,-105.039359,39.901757
127219,Glenwood Beauty Academy,Glenwood Springs,CO,81601,233,Garfield County,-107.359099,39.561946999999996
127228,Hair Dynamics Education Center,Fort Collins,CO,80525,-2,Larimer County,-105.07649199999999,40.497240999999995
127273,Iliff School of Theology,Denver,CO,80210-4798,216,Denver County,-104.960647,39.677461
127316,International Salon and Spa Academy,Colorado Springs,CO,80918-3684,-2,El Paso County,-104.786252,38.913621
127389,Lamar Community College,Lamar,CO,81052-3999,-2,Prowers County,-102.615612,38.058067
127556,Colorado Mesa University,Grand Junction,CO,81501-3122,-2,Mesa County,-108.54028100000001,39.076353999999995
127565,Metropolitan State University of Denver,Denver,CO,80217-3362,216,Denver County,-105.00239099999999,39.742248
127617,Morgan Community College,Fort  Morgan,CO,80701,-2,Morgan County,-103.771822,40.258792
127653,Naropa University,Boulder,CO,80302-6697,216,Boulder County,-105.267073,40.014815999999996
127680,National American University-Colorado Springs,Colorado Springs,CO,80920,-2,El Paso County,-104.790571,38.95208
127699,National American University-Denver,Denver,CO,80222-3308,216,Denver County,-104.941649,39.691953000000005
127714,Nazarene Bible College,Colorado Springs,CO,80910-3704,-2,El Paso County,-104.751124,38.814124
127732,Northeastern Junior College,Sterling,CO,80751-2944,-2,Logan County,-103.197536,40.636879
127741,University of Northern Colorado,Greeley,CO,80639,216,Weld County,-104.70172099999999,40.403178000000004
127778,Otero Junior College,La Junta,CO,81050,-2,Otero County,-103.544779,37.971184
127787,Everest College-Thornton,Thornton,CO,80229,216,Adams County,-104.985441,39.86156
127820,Pikes Peak Community College,Colorado Springs,CO,80906-5498,-2,El Paso County,-104.787261,38.764287
127839,Intellitec Medical Institute,Colorado Springs,CO,80919,-2,El Paso County,-104.814201,38.93097
127884,Pueblo Community College,Pueblo,CO,81004-1499,444,Pueblo County,-104.63639599999999,38.263458
127909,Red Rocks Community College,Lakewood,CO,80228-1255,216,Jefferson County,-105.150094,39.720277
127918,Regis University,Denver,CO,80221-1099,216,Denver County,-105.03138500000001,39.78976
127945,Rocky Mountain College of Art and Design,Lakewood,CO,80214,216,Jefferson County,-105.069911,39.743320000000004
127954,Montessori Education Center of the Rockies,Boulder,CO,80301,216,Boulder County,-105.25311,39.96504
128106,Colorado State University-Pueblo,Pueblo,CO,81001-4901,444,Pueblo County,-104.57984599999999,38.309219
128151,Pickens Technical College,Aurora,CO,80011-9307,216,Arapahoe County,-104.78998,39.723527000000004
128179,Intellitec College-Colorado Springs,Colorado Springs,CO,80909-6096,-2,El Paso County,-104.78721,38.832183
128188,Intellitec College-Grand Junction,Grand Junction,CO,81506,-2,Mesa County,-108.53062,39.116346
128258,Trinidad State Junior College,Trinidad,CO,81082,-2,Las Animas County,-104.51218399999999,37.172939
128300,University of Colorado System Office,Denver,CO,80203-1187,216,Denver County,-104.983277,39.74521
128328,United States Air Force Academy,USAFA,CO,80840-5002,-2,El Paso County,-104.88989299999999,39.011115000000004
128337,Empire Beauty School-Thornton,Thornton,CO,80233,216,Adams County,-104.943533,39.914863000000004
128391,Western State Colorado University,Gunnison,CO,81231,-2,Gunnison County,-106.91971000000001,38.547421
128425,Yeshiva Toras Chaim Talmudical Seminary,Denver,CO,80204,216,Denver County,-105.043282,39.741781
128498,Albertus Magnus College,New Haven,CT,06511-1189,408,New Haven County,-72.92384799999999,41.332519
128540,Paul Mitchell the School-Danbury,Danbury,CT,06810,408,Fairfield County,-73.451841,41.39648
128577,Asnuntuck Community College,Enfield,CT,06082,278,Hartford County,-72.570177,41.998409
128586,Bais Binyomin Academy,Stamford,CT,06901,408,Fairfield County,-73.534604,41.059922
128674,Branford Hall Career Institute-Branford Campus,Branford,CT,06405-4103,408,New Haven County,-72.848201,41.278557
128683,Lincoln College of New England-Southington,Southington,CT,06489-1057,278,Hartford County,-72.92021700000001,41.632345
128726,Bridgeport Hospital School of Nursing,Bridgeport,CT,06610,408,Fairfield County,-73.165185,41.189413
128744,University of Bridgeport,Bridgeport,CT,06604-5620,408,Fairfield County,-73.189352,41.165587
128771,Central Connecticut State University,New Britain,CT,06050,278,Hartford County,-72.770094,41.690258
128780,Charter Oak State College,New Britain,CT,06053,278,Hartford County,-72.767972,41.688246
128896,Connecticut Center for Massage Therapy-Newington,Newington,CT,06111-3975,278,Hartford County,-72.710705,41.685072
128902,Connecticut College,New London,CT,06320-4196,278,New London County,-72.107321,41.379833000000005
128957,Marinello Schools of Beauty-East Hartford,East Hartford,CT,06108,278,Hartford County,-72.642363,41.771184000000005
129002,Porter and Chester Institute of Branford,Branford,CT,06405,408,New Haven County,-72.85489799999999,41.277311
129020,University of Connecticut,Storrs,CT,06269,278,Tolland County,-72.24951899999999,41.808205
129154,Goodwin College,East Hartford,CT,06118,278,Hartford County,-72.6403,41.74405
129181,Lincoln Technical Institute-East Windsor,East Windsor,CT,06088,278,Hartford County,-72.596915,41.924248
129215,Eastern Connecticut State University,Willimantic,CT,06226,148,Windham County,-72.218753,41.721672999999996
129242,Fairfield University,Fairfield,CT,06824-5195,408,Fairfield County,-73.25778000000001,41.160732
129349,Northhaven Academy,North Haven,CT,06473,408,New Haven County,-72.85745,41.394495
129367,Capital Community College,Hartford,CT,06103,278,Hartford County,-72.67273399999999,41.768397
129428,Rensselaer Hartford Graduate Center Inc,Hartford,CT,06120,278,Hartford County,-72.673916,41.773462
129482,Fox Institute of Business-West Hartford,West Hartford,CT,06110-1922,278,Hartford County,-72.725762,41.727016
129491,Hartford Seminary,Hartford,CT,06105-2260,278,Hartford County,-72.707766,41.769861
129525,University of Hartford,West Hartford,CT,06117-1599,278,Hartford County,-72.714965,41.796485
129534,Holy Apostles College and Seminary,Cromwell,CT,06416-2005,278,Middlesex County,-72.647853,41.60682
129543,Housatonic Community College,Bridgeport,CT,06604-4704,408,Fairfield County,-73.19100300000001,41.175228000000004
129613,Sanford-Brown College-Farmington,Farmington,CT,06032,278,Hartford County,-72.795559,41.73539
129640,The Leon Institute of Hair Design,Bridgeport,CT,06604-4226,408,Fairfield County,-73.188576,41.178228000000004
129686,Lyme Academy College of Fine Arts,Old Lyme,CT,06371,278,New London County,-72.329397,41.322826
129695,Manchester Community College,Manchester,CT,06040,278,Hartford County,-72.562577,41.760484000000005
129729,Naugatuck Valley Community College,Waterbury,CT,06708-3089,408,New Haven County,-73.071209,41.549564000000004
129756,Middlesex Community College,Middletown,CT,06457-4829,278,Middlesex County,-72.611838,41.539516
129774,Mitchell College,New London,CT,06320,278,New London County,-72.095337,41.328075
129808,Three Rivers Community College,Norwich,CT,06360,278,New London County,-72.103039,41.509945
129923,Lincoln Technical Institute-New Britain,New Britain,CT,06051,278,Hartford County,-72.754498,41.659236
129932,New England Tractor Trailer Training School of Connecticut,Somers,CT,06071,278,Tolland County,-72.451739,41.978355
129941,University of New Haven,West Haven,CT,06516,408,New Haven County,-72.961472,41.291314
129969,Ridley-Lowell Business & Technical Institute-New London,New London,CT,06320,278,New London County,-72.100514,41.349947
130004,Norwalk Community College,Norwalk,CT,06854,408,Fairfield County,-73.450965,41.102574
130040,Northwestern Connecticut Community College,Winsted,CT,06098,408,Litchfield County,-73.059291,41.920982
130110,Paier College of Art Inc,Hamden,CT,06514-3902,408,New Haven County,-72.935048,41.347714
130129,Marinello Schools of Beauty-Meriden,Meriden,CT,06450-4836,408,New Haven County,-72.763231,41.524384999999995
130174,Porter and Chester Institute of Stratford,Stratford,CT,06615-7158,408,Fairfield County,-73.149023,41.169646
130183,Post University,Waterbury,CT,06723,408,New Haven County,-73.080525,41.535334000000006
130217,Quinebaug Valley Community College,Danielson,CT,06239-1436,148,Windham County,-71.889673,41.826229999999995
130226,Quinnipiac University,Hamden,CT,06518,408,New Haven County,-72.895542,41.419527
130253,Sacred Heart University,Fairfield,CT,06825-1000,408,Fairfield County,-73.24461,41.221548
130314,University of Saint Joseph,West Hartford,CT,06117,278,Hartford County,-72.730489,41.783028
130396,Gateway Community College,New Haven,CT,06510,408,New Haven County,-72.927501,41.30449
130448,St Vincent's College,Bridgeport,CT,06606-4201,408,Fairfield County,-73.20110600000001,41.201198
130493,Southern Connecticut State University,New Haven,CT,06515-1355,408,New Haven County,-72.948806,41.331852000000005
130509,Stone Academy-Hamden,West Haven,CT,06516,408,New Haven County,-72.977151,41.26774
130581,Tri-State College of Acupuncture,New York,NY,10011,408,New York County,-74.002085,40.739862
130590,Trinity College,Hartford,CT,06106-3100,278,Hartford County,-72.688684,41.746746
130606,Tunxis Community College,Farmington,CT,06032-3187,278,Hartford County,-72.87754,41.705498
130624,United States Coast Guard Academy,New London,CT,06320-4195,278,New London County,-72.098839,41.370261
130697,Wesleyan University,Middletown,CT,06459,278,Middlesex County,-72.656755,41.556779999999996
130776,Western Connecticut State University,Danbury,CT,06810-6826,408,Fairfield County,-73.444264,41.400365
130785,Yale-New Haven Hospital Dietetic Internship,New Haven,CT,06510,408,New Haven County,-72.935579,41.304214
130794,Yale University,New Haven,CT,06520,408,New Haven County,-72.926688,41.311158
130837,Beebe Medical Center Margaret H Rollins School of Nursing,Lewes,DE,19958,-2,Sussex County,-75.142425,38.771265
130873,Dawn Career Institute Inc,Wilmington,DE,19805-1511,428,New Castle County,-75.594268,39.754694
130882,Delaware Technical Community College-Central Office,Dover,DE,19901,428,Kent County,-75.562873,39.198144
130891,Delaware Technical Community College-Owens,Georgetown,DE,19947,-2,Sussex County,-75.40751999999999,38.697344
130907,Delaware Technical Community College-Terry,Dover,DE,19901,428,Kent County,-75.56012,39.198371
130916,Delaware Technical Community College-Stanton/Wilmington,Wilmington,DE,19801,428,New Castle County,-75.552162,39.740259
130934,Delaware State University,Dover,DE,19901,428,Kent County,-75.54053,39.187173
130943,University of Delaware,Newark,DE,19716,428,New Castle County,-75.7536,39.679790999999994
130989,Goldey-Beacom College,Wilmington,DE,19808,428,New Castle County,-75.694018,39.742464
131061,Schilling-Douglas School of Hair Design,Newark,DE,19711,428,New Castle County,-75.74195,39.711223
131098,Wesley College,Dover,DE,19901-3875,428,Kent County,-75.527377,39.16325
131113,Wilmington University,New Castle,DE,19720,428,New Castle County,-75.586998,39.682299
131159,American University,Washington,DC,20016-8001,548,District of Columbia,-77.090106,38.937802000000005
131283,Catholic University of America,Washington,DC,20064,548,District of Columbia,-76.998961,38.935796
131308,Corcoran College of Art and Design,Washington,DC,20006-4804,548,District of Columbia,-77.039812,38.895757
131399,University of the District of Columbia,Washington,DC,20008,548,District of Columbia,-77.066247,38.943819
131405,Pontifical Faculty of the Immaculate Conception at the Dominican House of Studies,Washington,DC,20017-1585,548,District of Columbia,-76.998806,38.931427
131450,Gallaudet University,Washington,DC,20002-3695,548,District of Columbia,-76.993675,38.907371000000005
131469,George Washington University,Washington,DC,20052,548,District of Columbia,-77.047871,38.89865
131496,Georgetown University,Washington,DC,20057-0001,548,District of Columbia,-77.073463,38.908809000000005
131520,Howard University,Washington,DC,20059-0001,548,District of Columbia,-77.019478,38.920739000000005
131742,Medtech Institute,Falls Church,VA,22042,548,Fairfax County,-77.171071,38.86972
131803,Strayer University-District of Columbia,Washington,DC,20005,548,District of Columbia,-77.034349,38.904851
131830,National Conservatory of Dramatic Arts,Washington,DC,20007,548,District of Columbia,-77.065095,38.910024
131876,Trinity Washington University,Washington,DC,20017-1094,548,District of Columbia,-77.004261,38.927398
131973,Wesley Theological Seminary,Washington,DC,20016-5690,548,District of Columbia,-77.08995999999999,38.939606
132268,Wyotech-Daytona,Ormond Beach,FL,32174,422,Volusia County,-81.13308599999999,29.349365000000002
132338,The Art Institute of Fort Lauderdale,Fort Lauderdale,FL,33316-3000,370,Broward County,-80.123514,26.101246
132374,Atlantic Technical Center,Coconut Creek,FL,33063-3902,370,Broward County,-80.185311,26.243609000000003
132408,The Baptist College of Florida,Graceville,FL,32440,-2,Jackson County,-85.519033,30.956401
132471,Barry University,Miami,FL,33161-6695,370,Miami-Dade County,-80.196136,25.878865
132523,Gooding Institute of Nurse Anesthesia,Panama City,FL,32405,-2,Bay County,-85.64986400000001,30.200503
132602,Bethune-Cookman University,Daytona Beach,FL,32114-3099,422,Volusia County,-81.031429,29.210193
132657,Lynn University,Boca Raton,FL,33431-5598,370,Palm Beach County,-80.123851,26.382777
132666,GUTI The Premier Beauty & Wellness Academy,Bradenton,FL,34210,412,Manatee County,-82.602211,27.462809999999998
132675,Bradford-Union Technical Center,Starke,FL,32091,-2,Bradford County,-82.123082,29.952134
132693,Eastern Florida State College,Cocoa,FL,32922,-2,Brevard County,-80.75813000000001,28.384790999999996
132709,Broward College,Fort Lauderdale,FL,33301,370,Broward County,-80.23541,26.079720000000002
132806,Fortis College-Winter Park,Winter Park,FL,32789,422,Orange County,-81.448402,28.555401
132842,Carlos Albizu University-Miami,Miami,FL,33172-2209,370,Miami-Dade County,-80.355002,25.795162
132851,College of Central Florida,Ocala,FL,34474,-2,Marion County,-82.175692,29.166078999999996
132879,Johnson University Florida,Kissimmee,FL,34744,422,Osceola County,-81.362512,28.301869
132903,University of Central Florida,Orlando,FL,32816,422,Orange County,-81.19880500000001,28.601059999999997
132976,Charlotte Technical Center,Port Charlotte,FL,33948-3399,412,Charlotte County,-82.147238,27.005558
133021,Chipola College,Marianna,FL,32446-2053,-2,Jackson County,-85.231946,30.790646999999996
133085,Clearwater Christian College,Clearwater,FL,33759-4595,-2,Pinellas County,-82.697305,27.963556
133155,Lorenzo Walker Institute of Technology,Naples,FL,34104-4405,162,Collier County,-81.763355,26.141199
133386,Daytona State College,Daytona Beach,FL,32114,422,Volusia County,-81.051266,29.202285999999997
133465,South University-West Palm Beach,Royal Palm Beach,FL,33411,370,Palm Beach County,-80.19969,26.69165
133492,Eckerd College,Saint Petersburg,FL,33711-4700,-2,Pinellas County,-82.685992,27.718996
133508,Edison State College,Fort Myers,FL,33919-0000,162,Lee County,-81.887375,26.554737
133526,Edward Waters College,Jacksonville,FL,32209,300,Duval County,-81.68481700000001,30.345129999999997
133553,Embry-Riddle Aeronautical University-Daytona Beach,Daytona Beach,FL,32114-3900,422,Volusia County,-81.0495,29.189244
133650,Florida Agricultural and Mechanical University,Tallahassee,FL,32307,533,Leon County,-84.285664,30.428599
133669,Florida Atlantic University,Boca Raton,FL,33431-0991,370,Palm Beach County,-80.102293,26.372536
133702,Florida State College at Jacksonville,Jacksonville,FL,32202,300,Duval County,-81.659901,30.334918
133711,Flagler College-St Augustine,Saint Augustine,FL,32084,300,St. Johns County,-81.315256,29.89335
133809,Florida College,Temple Terrace,FL,33617-5527,-2,Hillsborough County,-82.38344599999999,28.034910999999997
133845,Concorde Career Institute-Jacksonville,Jacksonville,FL,32256-6905,300,Duval County,-81.58261999999999,30.238877000000002
133854,Concorde Career Institute-Miramar,Miramar,FL,33025,370,Broward County,-80.203007,26.175119
133863,Concorde Career Institute-Tampa,Tampa,FL,33607-4127,-2,Hillsborough County,-82.51508199999999,27.959058000000002
133872,Adventist University of Health Sciences,Orlando,FL,32803,422,Orange County,-81.367687,28.576141999999997
133881,Florida Institute of Technology,Melbourne,FL,32901-6975,-2,Brevard County,-80.624628,28.064503000000002
133942,Florida Institute of Ultrasound Inc,Pensacola,FL,32514,-2,Escambia County,-87.22061500000001,30.534939
133951,Florida International University,Miami,FL,33199,370,Miami-Dade County,-80.37759100000001,25.757111
133960,Florida Keys Community College,Key West,FL,33040,-2,Monroe County,-81.74446,24.582748000000002
133979,Florida Memorial University,Miami Gardens,FL,33054-6199,370,Miami-Dade County,-80.27067199999999,25.917854000000002
133997,Florida Career College-Miami,Miami,FL,33174,370,Miami-Dade County,-80.36666600000001,25.755342000000002
134024,Florida School of Massage,Gainesville,FL,32608-5419,264,Alachua County,-82.338528,29.593484000000004
134079,Florida Southern College,Lakeland,FL,33801-5698,-2,Polk County,-81.945791,28.031507
134097,Florida State University,Tallahassee,FL,32306-1037,533,Leon County,-84.294801,30.4421
134112,Florida Technical College,Orlando,FL,32826,422,Orange County,-81.19609100000001,28.573159999999998
134121,University of Southernmost Florida,Jacksonville,FL,32225,300,Duval County,-81.550021,30.32563
134130,University of Florida,Gainesville,FL,32611,264,Alachua County,-82.361195,29.638247999999997
134149,Everest University-Pompano Beach,Pompano Beach,FL,33062,370,Broward County,-80.103598,26.234119
134228,Fort Pierce Beauty Academy,Fort Pierce,FL,34982-6333,370,St. Lucie County,-80.324698,27.412426
134237,Full Sail University,Winter Park,FL,32792-7429,422,Orange County,-81.301286,28.596546000000004
134291,George Stone Technical Center,Pensacola,FL,32526-8922,-2,Escambia County,-87.295105,30.488083000000003
134307,George T Baker Aviation School,Miami,FL,33142,370,Miami-Dade County,-80.263591,25.804092
134343,Gulf Coast State College,Panama City,FL,32401,-2,Bay County,-85.727249,30.186103999999997
134422,Key College,Dania Beach,FL,33004-3046,370,Broward County,-80.139871,26.052841
134495,Hillsborough Community College,Tampa,FL,33606-3584,-2,Hillsborough County,-82.456919,27.934513
134510,Hobe Sound Bible College,Hobe Sound,FL,33455-1065,370,Martin County,-80.132413,27.066473
134529,Hollywood Institute of Beauty Careers,Hollywood,FL,33023,370,Broward County,-80.2076,26.007554000000003
134574,Cortiva Institute-Florida,Pinellas Park,FL,33781,-2,Pinellas County,-82.688959,27.839722
134608,Indian River State College,Fort Pierce,FL,34981-5596,370,St. Lucie County,-80.35785,27.423121000000002
134680,International Academy of Design and Technology-Tampa,Tampa,FL,33634,-2,Hillsborough County,-82.54849300000001,27.992234000000003
134714,International Academy,South Daytona,FL,32119,422,Volusia County,-80.997811,29.162159000000003
134811,AI Miami International University of Art and Design,Miami,FL,33132-1418,370,Miami-Dade County,-80.18839,25.790008
134909,ITT Technical Institute-Tampa,Tampa,FL,33634-7350,-2,Hillsborough County,-82.547618,27.982416999999998
134945,Jacksonville University,Jacksonville,FL,32211-3394,300,Duval County,-81.60706,30.350348999999998
135063,Jones College-Jacksonville,Jacksonville,FL,32211,300,Duval County,-81.610068,30.328002
135081,Keiser University-Ft Lauderdale,Fort Lauderdale,FL,33309,370,Broward County,-80.16395899999999,26.185869
135124,Heritage Institute-Ft Myers,Fort Myers,FL,33912,162,Lee County,-81.842475,26.540884000000002
135142,La Belle Beauty School,Hialeah,FL,33012,370,Miami-Dade County,-80.312711,25.86695
135160,Florida Gateway College,Lake City,FL,32025-2007,264,Columbia County,-82.56966700000001,30.174307000000002
135179,Lake Technical Center,Eustis,FL,32726,422,Lake County,-81.690874,28.833446000000002
135188,Lake-Sumter State College,Leesburg,FL,34788-8751,422,Lake County,-81.797731,28.830237
135267,Fort Myers Institute of Technology,Fort Myers,FL,33916-2204,162,Lee County,-81.832974,26.64855
135276,Lively Technical Center,Tallahassee,FL,32304-2895,533,Leon County,-84.339057,30.448534000000002
135294,Lindsey Hopkins Technical Education Center,Miami,FL,33127,370,Miami-Dade County,-80.20815400000001,25.794676000000003
135337,Loraines Academy Inc,Saint Petersburg,FL,33710,-2,Pinellas County,-82.711151,27.781266
135364,Luther Rice University & Seminary,Lithonia,GA,30038-9869,122,DeKalb County,-84.123648,33.697984000000005
135391,State College of Florida-Manatee-Sarasota,Bradenton,FL,34207,412,Manatee County,-82.591739,27.436065999999997
135407,Manatee Technical Institute,Bradenton,FL,34203,412,Manatee County,-82.480488,27.446198
135416,Manhattan Hairstyling Academy,Tampa,FL,33611,-2,Hillsborough County,-82.51844399999999,27.902454
135522,Traviss Career Center,Lakeland,FL,33803,-2,Polk County,-81.89350300000001,27.995790000000003
135610,Trinity International University-Florida,Davie,FL,33324,370,Broward County,-80.25715600000001,26.099656
135647,Miami Lakes Educational Center,Miami Lakes,FL,33014,370,Miami-Dade County,-80.29513,25.916128
135717,Miami Dade College,Miami,FL,33132-2204,370,Miami-Dade County,-80.19085600000001,25.777717000000003
135726,University of Miami,Coral Gables,FL,33146,370,Miami-Dade County,-80.27645,25.720406
135735,Mid Florida Tech,Orlando,FL,32809,422,Orange County,-81.41599599999999,28.471695
135771,Beauty Schools of America-Miami,Miami,FL,33144-4700,370,Miami-Dade County,-80.303842,25.760695000000002
135939,Remington College-Tampa Campus,Tampa,FL,33619,-2,Hillsborough County,-82.385976,27.983465999999996
135957,Everest Institute-North Miami,Miami,FL,33169-4538,370,Miami-Dade County,-80.20353399999999,25.942952
136011,Everest Institute-Hialeah,Hialeah,FL,33012,370,Miami-Dade County,-80.29366999999999,25.865228
136048,Academy of Healing Arts Massage & Facial Skin Care,Lake Worth,FL,33463-2113,370,Palm Beach County,-80.113108,26.631071999999996
136066,Lincoln College of Technology-West Palm Beach,West Palm Beach,FL,33407,370,Palm Beach County,-80.09480500000001,26.758227
136075,Fortis College-Tampa,Tampa,FL,33619,-2,Hillsborough County,-82.361859,27.980159000000004
136109,Paul Mitchell the School-Jacksonville,Jacksonville,FL,32246,300,Duval County,-81.527303,30.258922
136145,North Florida Community College,Madison,FL,32340,-2,Madison County,-83.421873,30.473871000000003
136172,University of North Florida,Jacksonville,FL,32224-7699,300,Duval County,-81.507853,30.270916999999997
136206,Northwood University-Florida,West Palm Beach,FL,33409-2911,370,Palm Beach County,-80.104138,26.714688
136215,Nova Southeastern University,Fort Lauderdale,FL,33314-7796,370,Broward County,-80.24248,26.079337
136233,Northwest Florida State College,Niceville,FL,32578-1295,-2,Okaloosa County,-86.47546700000001,30.537148
136251,Orange Park International School of Beauty,Orange Park,FL,32073,300,Clay County,-81.70187800000001,30.163259999999998
136288,Everest University-North Orlando,Orlando,FL,32810,422,Orange County,-81.387438,28.610884000000002
136303,Orlando Tech,Orlando,FL,32801-1197,422,Orange County,-81.383783,28.550421999999998
136330,Palm Beach Atlantic University,West Palm Beach,FL,33401,370,Palm Beach County,-80.049758,26.704628999999997
136358,Palm Beach State College,Lake Worth,FL,33461-4796,370,Palm Beach County,-80.08710400000001,26.613214000000003
136400,Pasco-Hernando Community College,New Port Richey,FL,34654-5199,-2,Pasco County,-82.646727,28.2751
136473,Pensacola State College,Pensacola,FL,32504-8998,-2,Escambia County,-87.200622,30.480779
136491,Pinellas Technical Education Center-Clearwater,Clearwater,FL,33760-2140,-2,Pinellas County,-82.719064,27.911921999999997
136516,Polk State College,Winter Haven,FL,33881-4299,-2,Polk County,-81.712932,28.030775
136659,Radford M Locklin Technical Center,Milton,FL,32570-8188,-2,Santa Rosa County,-87.100567,30.646762
136701,Saint Vincent de Paul Regional Seminary,Boynton Beach,FL,33436-4899,370,Palm Beach County,-80.12570699999999,26.51582
136765,Ridge Career Center,Winter Haven,FL,33881-9518,-2,Polk County,-81.654463,28.076632
136774,Ringling College of Art and Design,Sarasota,FL,34234-5895,412,Sarasota County,-82.548598,27.35963
136783,Toni & Guy Hairdressing Academy-Jacksonville,Jacksonville,FL,32256,300,Duval County,-81.586731,30.2196
136826,Robert Morgan Educational Center,Miami,FL,33177,370,Miami-Dade County,-80.390354,25.599133
136950,Rollins College,Winter Park,FL,32789-4499,422,Orange County,-81.34871600000001,28.591991999999998
137023,First Coast Technical College,Saint Augustine,FL,32084-1919,300,St. Johns County,-81.34582900000001,29.924377000000003
137032,Saint Leo University,Saint Leo,FL,33574-6665,-2,Pasco County,-82.257287,28.336776
137078,St Petersburg College,Clearwater,FL,33760-2822,-2,Pinellas County,-82.717331,27.902420000000003
137087,Pinellas Technical Education Center-St Petersburg,Saint Petersburg,FL,33711-2209,-2,Pinellas County,-82.681534,27.761183000000003
137096,Santa Fe College,Gainesville,FL,32606-6210,264,Alachua County,-82.43395799999999,29.680698
137120,Sarasota County Technical Institute,Sarasota,FL,34233-1798,412,Sarasota County,-82.500827,27.285486
137148,Argosy University-Sarasota,Sarasota,FL,34235,412,Sarasota County,-82.465363,27.351394
137209,Seminole State College of Florida,Sanford,FL,32773-6199,422,Seminole County,-81.30560600000001,28.74475
137245,Sheridan Technical Center,Hollywood,FL,33021,370,Broward County,-80.198024,26.031736
137272,Saint John Vianney College Seminary,Miami,FL,33165-3244,370,Miami-Dade County,-80.337411,25.742579
137281,Saint Johns River State College,Palatka,FL,32177,300,Putnam County,-81.68113699999999,29.647195
137315,South Florida State College,Avon Park,FL,33825-9356,-2,Highlands County,-81.508387,27.569553000000003
137351,University of South Florida-Main Campus,Tampa,FL,33620-9951,-2,Hillsborough County,-82.415876,28.056646999999998
137476,St Thomas University,Miami Gardens,FL,33054-6459,370,Miami-Dade County,-80.256265,25.920915
137537,Stenotype Institute of Jacksonville Inc-Jacksonville,Jacksonville,FL,32207,300,Duval County,-81.635062,30.289644
137546,Stetson University,DeLand,FL,32723,422,Volusia County,-81.301604,29.036295000000003
137564,Southeastern University,Lakeland,FL,33801-6034,-2,Polk County,-81.91899699999999,28.031864000000002
137591,Benes International School of Beauty,New Port Richey,FL,34652,-2,Pasco County,-82.72846,28.261074
137713,Suwannee-Hamilton Technical Center,Live Oak,FL,32064,-2,Suwannee County,-82.99135600000001,30.2839
137759,Tallahassee Community College,Tallahassee,FL,32304-2895,533,Leon County,-84.34146199999999,30.445234000000003
137777,Talmudic College of Florida,Miami Beach,FL,33140-3854,370,Miami-Dade County,-80.141334,25.7949
137801,Everest University-Tampa,Tampa,FL,33614,-2,Hillsborough County,-82.49761600000001,27.996582
137810,Everest University-Largo,Largo,FL,33770-2556,-2,Pinellas County,-82.775886,27.915296
137847,The University of Tampa,Tampa,FL,33606-1490,-2,Hillsborough County,-82.465582,27.947225
137856,Taylor Technical Institute,Perry,FL,32348,-2,Taylor County,-83.565783,30.077954
137865,Tom P Haney Technical Center,Panama City,FL,32405,-2,Bay County,-85.646585,30.203363
137953,Trinity Baptist College,Jacksonville,FL,32221,300,Duval County,-81.70565500000001,30.323755
137962,Trinity College of Florida,Trinity,FL,34655-4401,-2,Pasco County,-82.677065,28.194221999999996
138132,Fashion Focus Hair Academy,Sarasota,FL,34231-4813,412,Sarasota County,-82.517388,27.258910999999998
138187,Valencia College,Orlando,FL,32801,422,Orange County,-81.464168,28.522646
138275,Warner University,Lake Wales,FL,33859-8797,-2,Polk County,-81.599972,27.825751
138284,Washington-Holmes Technical Center,Chipley,FL,32428-1618,-2,Washington County,-85.553345,30.774490000000004
138293,Webber International University,Babson Park,FL,33827-0096,-2,Polk County,-81.532325,27.838797999999997
138309,Rasmussen College-Florida,Ocala,FL,34474-6226,-2,Marion County,-82.19842,29.14081
138354,The University of West Florida,Pensacola,FL,32514-5750,-2,Escambia County,-87.218125,30.542855
138372,Westside Tech,Winter Garden,FL,34787-3733,422,Orange County,-81.57153199999999,28.559573999999998
138479,William T McFatter Technical Center,Davie,FL,33317,370,Broward County,-80.232201,26.085022
138488,Winter Park Tech,Winter Park,FL,32789,422,Orange County,-81.36174,28.604385999999998
138497,Withlacoochee Technical Institute,Inverness,FL,34450-4696,-2,Citrus County,-82.345563,28.834861
138558,Abraham Baldwin Agricultural College,Tifton,GA,31793-2601,-2,Tift County,-83.528281,31.481889000000002
138600,Agnes Scott College,Decatur,GA,30030-3797,122,DeKalb County,-84.29563,33.769996
138655,Interactive College of Technology-Chamblee,Chamblee,GA,30341,122,DeKalb County,-84.301964,33.889452
138664,Interactive College of Technology-Morrow,Morrow,GA,30260,122,Clayton County,-84.33609799999999,33.57233
138682,Albany Technical College,Albany,GA,31701,-2,Dougherty County,-84.174284,31.554340000000003
138691,Darton State College,Albany,GA,31707-3098,-2,Dougherty County,-84.212087,31.583594
138716,Albany State University,Albany,GA,31705,-2,Dougherty County,-84.14305999999999,31.571395000000003
138761,Andrew College,Cuthbert,GA,39840-5550,-2,Randolph County,-84.79502099999999,31.772321
138789,Armstrong Atlantic State University,Savannah,GA,31419-1997,496,Chatham County,-81.160409,31.978109000000003
138813,The Art Institute of Atlanta,Atlanta,GA,30328-1635,122,Fulton County,-84.354867,33.937445000000004
138822,Georgia Career Institute,Conyers,GA,30094,122,Rockdale County,-84.01507099999999,33.642804999999996
138840,Atlanta Technical College,Atlanta,GA,30310-4446,122,Fulton County,-84.404995,33.712009
138868,Point University,West Point,GA,31833,122,Troup County,-85.184285,32.879467
138901,Atlanta Metropolitan State College,Atlanta,GA,30310-4498,122,Fulton County,-84.404659,33.70893
138929,Atlanta's John Marshall Law School,Atlanta,GA,30309,122,Fulton County,-84.38776999999999,33.793388
138938,Atlanta School of Massage,Atlanta,GA,30338,122,DeKalb County,-84.29844,33.927828999999996
138947,Clark Atlanta University,Atlanta,GA,30314-4391,122,Fulton County,-84.412818,33.748771999999995
138956,Augusta Technical College,Augusta,GA,30906,-2,Richmond County,-82.048439,33.418991999999996
138983,Augusta State University,Augusta,GA,309042200,-2,Richmond County,-82.02195,33.476464
139010,Bainbridge State College,Bainbridge,GA,39819,533,Decatur County,-84.535049,30.899473999999998
139074,Bauder College,Atlanta,GA,30313,122,Fulton County,-84.39972399999999,33.767494
139092,Beauty College of America,Forest Park,GA,30297-1443,122,Clayton County,-84.35199899999999,33.618673
139144,Berry College,Mount Berry,GA,30149,470,Floyd County,-85.189077,34.289254
139153,Beulah Heights University,Atlanta,GA,30316,122,Fulton County,-84.358086,33.737021999999996
139199,Brenau University,Gainesville,GA,30501-3668,122,Hall County,-83.821513,34.303117
139205,Brewton-Parker College,Mount Vernon,GA,30445,-2,Montgomery County,-82.586136,32.185718
139214,Brown College of Court Reporting,Atlanta,GA,30318,122,Fulton County,-84.414366,33.807277
139250,College of Coastal Georgia,Brunswick,GA,31520-3644,-2,Glynn County,-81.492667,31.136384000000003
139278,West Georgia Technical College,Waco,GA,30182,122,Haralson County,-85.183666,33.691657
139287,Carver Bible College,Atlanta,GA,30331,122,Fulton County,-84.515091,33.7236
139311,Clayton  State University,Morrow,GA,30260-0285,122,Clayton County,-84.328174,33.594079
139348,Columbia Theological Seminary,Decatur,GA,30030-4118,122,DeKalb County,-84.282978,33.764108
139357,Columbus Technical College,Columbus,GA,31904-6572,194,Muscogee County,-84.979348,32.505697
139366,Columbus State University,Columbus,GA,31907-5645,194,Muscogee County,-84.94079599999999,32.501556
139384,Georgia Northwestern Technical College,Rome,GA,30161,470,Floyd County,-85.171361,34.224672999999996
